{
"type": "FeatureCollection",
"name": "colleges",
"features": [
{ "type": "Feature", "properties": { "NAME": "BRYANT & STRATTON COLLEGE-AMHERST", "CITY": "GETZVILLE", "STATE": "NY", "TOT_ENROLL": 317 }, "geometry": { "type": "Point", "coordinates": [ -78.74276521799996, 43.040850354000042 ] } },
{ "type": "Feature", "properties": { "NAME": "CUNY SCHOOL OF LAW", "CITY": "LONG ISLAND CITY", "STATE": "NY", "TOT_ENROLL": 583 }, "geometry": { "type": "Point", "coordinates": [ -73.943768956, 40.747863473000017 ] } },
{ "type": "Feature", "properties": { "NAME": "ROCKLAND COMMUNITY COLLEGE", "CITY": "SUFFERN", "STATE": "NY", "TOT_ENROLL": 6859 }, "geometry": { "type": "Point", "coordinates": [ -74.086622374999934, 41.133841476000036 ] } },
{ "type": "Feature", "properties": { "NAME": "SOUTHERN WESTCHESTER BOCES-PRACTICAL NURSING PROGRAM", "CITY": "HARRISON", "STATE": "NY", "TOT_ENROLL": 106 }, "geometry": { "type": "Point", "coordinates": [ -73.741713470999983, 40.973754811000056 ] } },
{ "type": "Feature", "properties": { "NAME": "OHIO VALLEY COLLEGE OF TECHNOLOGY", "CITY": "EAST LIVERPOOL", "STATE": "OH", "TOT_ENROLL": 201 }, "geometry": { "type": "Point", "coordinates": [ -80.572163581999988, 40.679601911000042 ] } },
{ "type": "Feature", "properties": { "NAME": "CENTRAL OKLAHOMA COLLEGE", "CITY": "OKLAHOMA CITY", "STATE": "OK", "TOT_ENROLL": 247 }, "geometry": { "type": "Point", "coordinates": [ -97.560241055999612, 35.62150216400007 ] } },
{ "type": "Feature", "properties": { "NAME": "NEW MEXICO STATE UNIVERSITY-DONA ANA", "CITY": "LAS CRUCES", "STATE": "NM", "TOT_ENROLL": 7876 }, "geometry": { "type": "Point", "coordinates": [ -106.73772110899975, 32.353807426000088 ] } },
{ "type": "Feature", "properties": { "NAME": "SANTA FE COMMUNITY COLLEGE", "CITY": "SANTA FE", "STATE": "NM", "TOT_ENROLL": 4207 }, "geometry": { "type": "Point", "coordinates": [ -105.99847189800019, 35.605217055000047 ] } },
{ "type": "Feature", "properties": { "NAME": "PANACHE ACADEMY OF BEAUTY", "CITY": "BARABOO", "STATE": "WI", "TOT_ENROLL": 59 }, "geometry": { "type": "Point", "coordinates": [ -89.780075656999927, 43.576184534000035 ] } },
{ "type": "Feature", "properties": { "NAME": "UNIVERSITY OF MARYLAND-UNIVERSITY COLLEGE", "CITY": "ADELPHI", "STATE": "MD", "TOT_ENROLL": 60603 }, "geometry": { "type": "Point", "coordinates": [ -76.847551388999975, 38.91273344399999 ] } },
{ "type": "Feature", "properties": { "NAME": "STUDIO BEAUTY SCHOOL", "CITY": "SPOKANE VALLEY", "STATE": "WA", "TOT_ENROLL": 68 }, "geometry": { "type": "Point", "coordinates": [ -117.270208587999647, 47.657640932000064 ] } },
{ "type": "Feature", "properties": { "NAME": "NORTHWEST COLLEGE-BEAVERTON", "CITY": "BEAVERTON", "STATE": "OR", "TOT_ENROLL": 51 }, "geometry": { "type": "Point", "coordinates": [ -122.805675690000029, 45.489281361000081 ] } },
{ "type": "Feature", "properties": { "NAME": "PHAGANS CENTRAL OREGON BEAUTY COLLEGE", "CITY": "BEND", "STATE": "OR", "TOT_ENROLL": 87 }, "geometry": { "type": "Point", "coordinates": [ -121.264131682999704, 44.063649931000015 ] } },
{ "type": "Feature", "properties": { "NAME": "PHAGANS SCHOOL OF HAIR DESIGN", "CITY": "HAPPY VALLEY", "STATE": "OR", "TOT_ENROLL": 163 }, "geometry": { "type": "Point", "coordinates": [ -122.575091870999572, 45.434714330000098 ] } },
{ "type": "Feature", "properties": { "NAME": "EMPIRE BEAUTY SCHOOL-POTTSVILLE", "CITY": "POTTSVILLE", "STATE": "PA", "TOT_ENROLL": 48 }, "geometry": { "type": "Point", "coordinates": [ -76.186455508999984, 40.706858189000037 ] } },
{ "type": "Feature", "properties": { "NAME": "NEW ENGLAND INSTITUTE OF TECHNOLOGY", "CITY": "EAST GREENWICH", "STATE": "RI", "TOT_ENROLL": 2763 }, "geometry": { "type": "Point", "coordinates": [ -71.50299509, 41.66166754200006 ] } },
{ "type": "Feature", "properties": { "NAME": "CHATTANOOGA COLLEGE MEDICAL DENTAL AND TECHNICAL CAREERS", "CITY": "CHATTANOOGA", "STATE": "TN", "TOT_ENROLL": 283 }, "geometry": { "type": "Point", "coordinates": [ -85.215190864999926, 35.008418975000048 ] } },
{ "type": "Feature", "properties": { "NAME": "O'BRIENS AVEDA INSTITUTE", "CITY": "WILLISTON", "STATE": "VT", "TOT_ENROLL": 39 }, "geometry": { "type": "Point", "coordinates": [ -73.102722155999928, 44.447176416000026 ] } },
{ "type": "Feature", "properties": { "NAME": "SYLVAIN MELLOUL INTERNATIONAL HAIR ACADEMY", "CITY": "LYNCHBURG", "STATE": "VA", "TOT_ENROLL": 88 }, "geometry": { "type": "Point", "coordinates": [ -79.1796200499999, 37.364419981 ] } },
{ "type": "Feature", "properties": { "NAME": "RALPH R WILLIS CAREER AND TECHNICAL CENTER", "CITY": "STOLLINGS", "STATE": "WV", "TOT_ENROLL": 40 }, "geometry": { "type": "Point", "coordinates": [ -81.942825944999953, 37.826940537000056 ] } },
{ "type": "Feature", "properties": { "NAME": "WOOD COUNTY SCHOOL OF PRACTICAL NURSING", "CITY": "PARKERSBURG", "STATE": "WV", "TOT_ENROLL": 22 }, "geometry": { "type": "Point", "coordinates": [ -81.505519316999965, 39.21681559899999 ] } },
{ "type": "Feature", "properties": { "NAME": "DIESEL DRIVING ACADEMY-SHREVEPORT", "CITY": "SHREVEPORT", "STATE": "LA", "TOT_ENROLL": 212 }, "geometry": { "type": "Point", "coordinates": [ -93.794876911000074, 32.476188785000012 ] } },
{ "type": "Feature", "properties": { "NAME": "INTERCOAST COLLEGES-ANAHEIM", "CITY": "ANAHEIM", "STATE": "CA", "TOT_ENROLL": 320 }, "geometry": { "type": "Point", "coordinates": [ -117.908744755000313, 33.809908989000085 ] } },
{ "type": "Feature", "properties": { "NAME": "ROSS COLLEGE-QUAD CITIES", "CITY": "BETTENDORF", "STATE": "IA", "TOT_ENROLL": 76 }, "geometry": { "type": "Point", "coordinates": [ -90.545112857999555, 41.556051170000032 ] } },
{ "type": "Feature", "properties": { "NAME": "TONI & GUY HAIRDRESSING ACADEMY-SHORELINE", "CITY": "SHORELINE", "STATE": "WA", "TOT_ENROLL": 61 }, "geometry": { "type": "Point", "coordinates": [ -122.344408742000297, 47.762098905000094 ] } },
{ "type": "Feature", "properties": { "NAME": "K & G 5 STAR BARBER COLLEGE", "CITY": "LEAGUE CITY", "STATE": "TX", "TOT_ENROLL": 20 }, "geometry": { "type": "Point", "coordinates": [ -95.088401312000116, 29.443081788000026 ] } },
{ "type": "Feature", "properties": { "NAME": "CONCORDE CAREER COLLEGE-GRAND PRAIRIE", "CITY": "GRAND PRAIRIE", "STATE": "TX", "TOT_ENROLL": 835 }, "geometry": { "type": "Point", "coordinates": [ -97.054994433000346, 32.675386461000059 ] } },
{ "type": "Feature", "properties": { "NAME": "GENESIS CAREER COLLEGE-LEBANON", "CITY": "LEBANON", "STATE": "TN", "TOT_ENROLL": 134 }, "geometry": { "type": "Point", "coordinates": [ -86.337834919999963, 36.216074018000036 ] } },
{ "type": "Feature", "properties": { "NAME": "RAPHAEL'S SCHOOL OF BEAUTY CULTURE INC-BOARDMAN", "CITY": "BOARDMAN", "STATE": "OH", "TOT_ENROLL": 109 }, "geometry": { "type": "Point", "coordinates": [ -80.680026922999971, 41.023643090000064 ] } },
{ "type": "Feature", "properties": { "NAME": "ULSTER BOCES SCHOOL OF PRACTICAL NURSING", "CITY": "LAKE KATRINE", "STATE": "NY", "TOT_ENROLL": 51 }, "geometry": { "type": "Point", "coordinates": [ -73.993141233999964, 41.976571624000059 ] } },
{ "type": "Feature", "properties": { "NAME": "PLATT COLLEGE-EDGE TECH ACADEMY", "CITY": "HURST", "STATE": "TX", "TOT_ENROLL": 24 }, "geometry": { "type": "Point", "coordinates": [ -97.196135099999793, 32.834113036000034 ] } },
{ "type": "Feature", "properties": { "NAME": "KENNETH SHULER SCHOOL OF COSMETOLOGY-ROCK HILL", "CITY": "ROCK HILL", "STATE": "SC", "TOT_ENROLL": 106 }, "geometry": { "type": "Point", "coordinates": [ -80.994889684999933, 34.970176937000062 ] } },
{ "type": "Feature", "properties": { "NAME": "CET-EL PASO", "CITY": "EL PASO", "STATE": "TX", "TOT_ENROLL": 51 }, "geometry": { "type": "Point", "coordinates": [ -106.323037339999885, 31.69611770800001 ] } },
{ "type": "Feature", "properties": { "NAME": "NORTHWEST HVAC\/R TRAINING CENTER", "CITY": "SPOKANE", "STATE": "WA", "TOT_ENROLL": 41 }, "geometry": { "type": "Point", "coordinates": [ -117.407658096000134, 47.673616224000035 ] } },
{ "type": "Feature", "properties": { "NAME": "MYOTHERAPY INSTITUTE", "CITY": "LINCOLN", "STATE": "NE", "TOT_ENROLL": 11 }, "geometry": { "type": "Point", "coordinates": [ -96.623324691000391, 40.772287188000085 ] } },
{ "type": "Feature", "properties": { "NAME": "MY LE'S BEAUTY COLLEGE", "CITY": "SACRAMENTO", "STATE": "CA", "TOT_ENROLL": 273 }, "geometry": { "type": "Point", "coordinates": [ -121.452433989000426, 38.49490068700004 ] } },
{ "type": "Feature", "properties": { "NAME": "TONI & GUY HAIRDRESSING ACADEMY-PLANO", "CITY": "PLANO", "STATE": "TX", "TOT_ENROLL": 169 }, "geometry": { "type": "Point", "coordinates": [ -96.797506609999701, 33.026195034000104 ] } },
{ "type": "Feature", "properties": { "NAME": "POLYTECHNIC UNIVERSITY OF PUERTO RICO-ORLANDO", "CITY": "ORLANDO", "STATE": "FL", "TOT_ENROLL": 214 }, "geometry": { "type": "Point", "coordinates": [ -81.253926863999979, 28.551576226000066 ] } },
{ "type": "Feature", "properties": { "NAME": "FORTIS COLLEGE-ORANGE PARK", "CITY": "ORANGE PARK", "STATE": "FL", "TOT_ENROLL": 431 }, "geometry": { "type": "Point", "coordinates": [ -81.759016033999913, 30.148247218000023 ] } },
{ "type": "Feature", "properties": { "NAME": "PACIFIC ISLANDS UNIVERSITY", "CITY": "MANGILAO", "STATE": "GU", "TOT_ENROLL": 62 }, "geometry": { "type": "Point", "coordinates": [ 144.835779555999608, 13.464982163000089 ] } },
{ "type": "Feature", "properties": { "NAME": "NATIONAL AMERICAN UNIVERSITY-ALBUQUERQUE WEST", "CITY": "ALBUQUERQUE", "STATE": "NM", "TOT_ENROLL": 30 }, "geometry": { "type": "Point", "coordinates": [ -106.653564906000241, 35.199836342 ] } },
{ "type": "Feature", "properties": { "NAME": "OREGON STATE UNIVERSITY-CASCADES CAMPUS", "CITY": "BEND", "STATE": "OR", "TOT_ENROLL": 1259 }, "geometry": { "type": "Point", "coordinates": [ -121.333574442000057, 44.042733673000036 ] } },
{ "type": "Feature", "properties": { "NAME": "INSTITUTE FOR THERAPEUTIC MASSAGE", "CITY": "HASKELL", "STATE": "NJ", "TOT_ENROLL": 77 }, "geometry": { "type": "Point", "coordinates": [ -74.2971263699999, 41.029318289000024 ] } },
{ "type": "Feature", "properties": { "NAME": "SUSQUEHANNA COUNTY CAREER AND TECHNOLOGY CENTER", "CITY": "SPRINGVILLE", "STATE": "PA", "TOT_ENROLL": 65 }, "geometry": { "type": "Point", "coordinates": [ -75.956120541999937, 41.738453823000057 ] } },
{ "type": "Feature", "properties": { "NAME": "RUDY & KELLY ACADEMY-A PAUL MITCHELL PARTNER SCHOOL", "CITY": "VIRGINIA BEACH", "STATE": "VA", "TOT_ENROLL": 211 }, "geometry": { "type": "Point", "coordinates": [ -76.189200113999988, 36.779335138000086 ] } },
{ "type": "Feature", "properties": { "NAME": "THE CULINARY SCHOOL OF FORT WORTH", "CITY": "FORT WORTH", "STATE": "TX", "TOT_ENROLL": 32 }, "geometry": { "type": "Point", "coordinates": [ -97.428762894000315, 32.724027715 ] } },
{ "type": "Feature", "properties": { "NAME": "RADIOLOGICAL TECHNOLOGIES UNIVERSITY VT", "CITY": "SOUTH BEND", "STATE": "IN", "TOT_ENROLL": 97 }, "geometry": { "type": "Point", "coordinates": [ -86.249825206999986, 41.673446676000033 ] } },
{ "type": "Feature", "properties": { "NAME": "UNIVERSITY OF SAINT KATHERINE", "CITY": "SAN MARCOS", "STATE": "CA", "TOT_ENROLL": 187 }, "geometry": { "type": "Point", "coordinates": [ -117.19660115799968, 33.151216505000022 ] } },
{ "type": "Feature", "properties": { "NAME": "TOTALLY COSMO SCHOOL OF MODERN COSMETOLOGY", "CITY": "BROKEN BOW", "STATE": "OK", "TOT_ENROLL": 25 }, "geometry": { "type": "Point", "coordinates": [ -94.738038461999949, 34.028005386000103 ] } },
{ "type": "Feature", "properties": { "NAME": "U.S. TRUCK DRIVER TRAINING SCHOOL", "CITY": "STERLING HEIGHTS", "STATE": "MI", "TOT_ENROLL": 173 }, "geometry": { "type": "Point", "coordinates": [ -83.04299070499999, 42.550201163000025 ] } },
{ "type": "Feature", "properties": { "NAME": "PRESBYTERIAN THEOLOGICAL SEMINARY IN AMERICA", "CITY": "SANTA FE SPRINGS", "STATE": "CA", "TOT_ENROLL": 196 }, "geometry": { "type": "Point", "coordinates": [ -118.046952974999897, 33.888491437000027 ] } },
{ "type": "Feature", "properties": { "NAME": "HEALTH CAREER INSTITUTE", "CITY": "WEST PALM BEACH", "STATE": "FL", "TOT_ENROLL": 404 }, "geometry": { "type": "Point", "coordinates": [ -80.085146261999938, 26.702599882000094 ] } },
{ "type": "Feature", "properties": { "NAME": "GREAT LAKES TRUCK DRIVING SCHOOL", "CITY": "COLUMBIA STATION", "STATE": "OH", "TOT_ENROLL": 32 }, "geometry": { "type": "Point", "coordinates": [ -81.967995884999965, 41.314186305000071 ] } },
{ "type": "Feature", "properties": { "NAME": "AMERICA EVANGELICAL UNIVERSITY", "CITY": "LOS ANGELES", "STATE": "CA", "TOT_ENROLL": 85 }, "geometry": { "type": "Point", "coordinates": [ -118.308730089999614, 34.04133539500004 ] } },
{ "type": "Feature", "properties": { "NAME": "GADSDEN TECHNICAL INSTITUTE", "CITY": "QUINCY", "STATE": "FL", "TOT_ENROLL": 43 }, "geometry": { "type": "Point", "coordinates": [ -84.577480712999929, 30.577652903000054 ] } },
{ "type": "Feature", "properties": { "NAME": "LOS ANGELES ACADEMY OF FIGURATIVE ART", "CITY": "VAN NUYS", "STATE": "CA", "TOT_ENROLL": 14 }, "geometry": { "type": "Point", "coordinates": [ -118.502004977999718, 34.208201100000053 ] } },
{ "type": "Feature", "properties": { "NAME": "WORLD CLASS ACADEMY OF BEAUTY CAREERS", "CITY": "TALLAHASSEE", "STATE": "FL", "TOT_ENROLL": 14 }, "geometry": { "type": "Point", "coordinates": [ -84.290943852999959, 30.412808995 ] } },
{ "type": "Feature", "properties": { "NAME": "ALLIED HEALTH CAREERS INSTITUTE", "CITY": "MURFREESBORO", "STATE": "TN", "TOT_ENROLL": 82 }, "geometry": { "type": "Point", "coordinates": [ -86.391527626999945, 35.827825325000056 ] } },
{ "type": "Feature", "properties": { "NAME": "SACRAMENTO ULTRASOUND INSTITUTE", "CITY": "SACRAMENTO", "STATE": "CA", "TOT_ENROLL": 82 }, "geometry": { "type": "Point", "coordinates": [ -121.383521916999982, 38.604481825000022 ] } },
{ "type": "Feature", "properties": { "NAME": "MEDICAL PREP INSTITUTE OF TAMPA BAY", "CITY": "TAMPA", "STATE": "FL", "TOT_ENROLL": 245 }, "geometry": { "type": "Point", "coordinates": [ -82.432859218000019, 28.033155231000055 ] } },
{ "type": "Feature", "properties": { "NAME": "ELITE INSTITUTE OF COSMETOLOGY", "CITY": "PORTSMOUTH", "STATE": "OH", "TOT_ENROLL": 21 }, "geometry": { "type": "Point", "coordinates": [ -82.994108236999978, 38.745504590000067 ] } },
{ "type": "Feature", "properties": { "NAME": "REGAN CAREER INSTITUTE", "CITY": "EL MONTE", "STATE": "CA", "TOT_ENROLL": 10 }, "geometry": { "type": "Point", "coordinates": [ -118.030438013, 34.070167748000102 ] } },
{ "type": "Feature", "properties": { "NAME": "BOLIVAR TECHNICAL COLLEGE", "CITY": "BOLIVAR", "STATE": "MO", "TOT_ENROLL": 120 }, "geometry": { "type": "Point", "coordinates": [ -93.421646159000346, 37.623865270000067 ] } },
{ "type": "Feature", "properties": { "NAME": "BALDY VIEW REGIONAL OCCUPATIONAL PROGRAM", "CITY": "ONTARIO", "STATE": "CA", "TOT_ENROLL": 26 }, "geometry": { "type": "Point", "coordinates": [ -117.636692616000303, 34.046486204000097 ] } },
{ "type": "Feature", "properties": { "NAME": "MAK BEAUTY INSTITUTE", "CITY": "CUMMING", "STATE": "GA", "TOT_ENROLL": 23 }, "geometry": { "type": "Point", "coordinates": [ -84.14389384, 34.186341797000054 ] } },
{ "type": "Feature", "properties": { "NAME": "REFORMED UNIVERSITY", "CITY": "LAWRENCEVILLE", "STATE": "GA", "TOT_ENROLL": 139 }, "geometry": { "type": "Point", "coordinates": [ -84.078087852999914, 33.972031993000016 ] } },
{ "type": "Feature", "properties": { "NAME": "MOBILE TECHNICAL TRAINING", "CITY": "SOUTH HACKENSACK", "STATE": "NJ", "TOT_ENROLL": 31 }, "geometry": { "type": "Point", "coordinates": [ -74.049647552999943, 40.857039198000052 ] } },
{ "type": "Feature", "properties": { "NAME": "AMERICAN BARBER ACADEMY", "CITY": "READING", "STATE": "PA", "TOT_ENROLL": 44 }, "geometry": { "type": "Point", "coordinates": [ -75.930352160000012, 40.322210614000049 ] } },
{ "type": "Feature", "properties": { "NAME": "MASTER'S BARBER & STYLING COLLEGE", "CITY": "OLD HICKORY", "STATE": "TN", "TOT_ENROLL": 27 }, "geometry": { "type": "Point", "coordinates": [ -86.57135324699999, 36.219669315000033 ] } },
{ "type": "Feature", "properties": { "NAME": "YESHIVA SHAAR EPHRAIM", "CITY": "MONSEY", "STATE": "NY", "TOT_ENROLL": 109 }, "geometry": { "type": "Point", "coordinates": [ -74.060788566000014, 41.116920069000059 ] } },
{ "type": "Feature", "properties": { "NAME": "CALIFORNIA INSTITUTE OF ARTS & TECHNOLOGY", "CITY": "SAN DIEGO", "STATE": "CA", "TOT_ENROLL": 530 }, "geometry": { "type": "Point", "coordinates": [ -117.134154585000061, 32.770776515000101 ] } },
{ "type": "Feature", "properties": { "NAME": "ELITE COSMETOLOGY, BARBER & SPA ACADEMY", "CITY": "YAKIMA", "STATE": "WA", "TOT_ENROLL": 113 }, "geometry": { "type": "Point", "coordinates": [ -120.544084563000268, 46.583901809000061 ] } },
{ "type": "Feature", "properties": { "NAME": "MIAMI AD SCHOOL-NEW YORK", "CITY": "ASTORIA", "STATE": "NY", "TOT_ENROLL": 91 }, "geometry": { "type": "Point", "coordinates": [ -73.92509225199997, 40.755034789000035 ] } },
{ "type": "Feature", "properties": { "NAME": "COLUMBIA SOUTHERN UNIVERSITY", "CITY": "ORANGE BEACH", "STATE": "AL", "TOT_ENROLL": 21104 }, "geometry": { "type": "Point", "coordinates": [ -87.653142988999932, 30.329294893000043 ] } },
{ "type": "Feature", "properties": { "NAME": "WOODRUFF MEDICAL TRAINING AND TESTING", "CITY": "TUCKER", "STATE": "GA", "TOT_ENROLL": 142 }, "geometry": { "type": "Point", "coordinates": [ -84.251375280999952, 33.843810928000011 ] } },
{ "type": "Feature", "properties": { "NAME": "SUMNER COLLEGE", "CITY": "PORTLAND", "STATE": "OR", "TOT_ENROLL": 321 }, "geometry": { "type": "Point", "coordinates": [ -122.576783602999598, 45.574868067000054 ] } },
{ "type": "Feature", "properties": { "NAME": "ELYON COLLEGE", "CITY": "BROOKLYN", "STATE": "NY", "TOT_ENROLL": 41 }, "geometry": { "type": "Point", "coordinates": [ -73.980634102, 40.611096511000035 ] } },
{ "type": "Feature", "properties": { "NAME": "C. ALEXANDER SCHOOL OF COSMETOLOGY", "CITY": "LITTLE ROCK", "STATE": "AR", "TOT_ENROLL": 24 }, "geometry": { "type": "Point", "coordinates": [ -92.342806704000282, 34.719391308000041 ] } },
{ "type": "Feature", "properties": { "NAME": "WESTERN MICHIGAN UNIVERSITY HOMER STRYKER M.D. SCHOOL OF MEDICINE", "CITY": "KALAMAZOO", "STATE": "MI", "TOT_ENROLL": 307 }, "geometry": { "type": "Point", "coordinates": [ -85.599467632999975, 42.283041757000049 ] } },
{ "type": "Feature", "properties": { "NAME": "ANN WEBB SKIN INSTITUTE", "CITY": "AUSTIN", "STATE": "TX", "TOT_ENROLL": 134 }, "geometry": { "type": "Point", "coordinates": [ -97.75182132500035, 30.419753184000019 ] } },
{ "type": "Feature", "properties": { "NAME": "THE ESTHETIC INSTITUTE", "CITY": "VIENNA", "STATE": "VA", "TOT_ENROLL": 145 }, "geometry": { "type": "Point", "coordinates": [ -77.23418878299999, 38.914348128 ] } },
{ "type": "Feature", "properties": { "NAME": "DIGITAL MEDIA INSTITUTE AT INTERTECH", "CITY": "SHREVEPORT", "STATE": "LA", "TOT_ENROLL": 26 }, "geometry": { "type": "Point", "coordinates": [ -93.771625656000097, 32.48058697700003 ] } },
{ "type": "Feature", "properties": { "NAME": "ALLGOOD BEAUTY INSTITUTE", "CITY": "FRISCO", "STATE": "TX", "TOT_ENROLL": 8 }, "geometry": { "type": "Point", "coordinates": [ -96.804115913999894, 33.157285279000021 ] } },
{ "type": "Feature", "properties": { "NAME": "RAY J'S COLLEGE OF HAIR", "CITY": "BATON ROUGE", "STATE": "LA", "TOT_ENROLL": 11 }, "geometry": { "type": "Point", "coordinates": [ -91.11093474699986, 30.464873206000068 ] } },
{ "type": "Feature", "properties": { "NAME": "GWINNETT INSTITUTE", "CITY": "ORLANDO", "STATE": "FL", "TOT_ENROLL": 262 }, "geometry": { "type": "Point", "coordinates": [ -81.208743401999968, 28.571197398000024 ] } },
{ "type": "Feature", "properties": { "NAME": "PELOTON COLLEGE", "CITY": "ARLINGTON", "STATE": "TX", "TOT_ENROLL": 70 }, "geometry": { "type": "Point", "coordinates": [ -97.092411752000075, 32.758245504000023 ] } },
{ "type": "Feature", "properties": { "NAME": "KANSAS CITY UNIVERSITY OF MEDICINE AND BIOSCIENCES-JOPLIN", "CITY": "JOPLIN", "STATE": "MO", "TOT_ENROLL": 326 }, "geometry": { "type": "Point", "coordinates": [ -94.526918169999647, 37.057535 ] } },
{ "type": "Feature", "properties": { "NAME": "MANUEL AND THERESA'S SCHOOL OF HAIR DESIGN", "CITY": "BRENHAM", "STATE": "TX", "TOT_ENROLL": 9 }, "geometry": { "type": "Point", "coordinates": [ -96.387562016000018, 30.176171924000045 ] } },
{ "type": "Feature", "properties": { "NAME": "CINCINNATI SCHOOL OF BARBERING & HAIR DESIGN INC", "CITY": "CINCINNATI", "STATE": "OH", "TOT_ENROLL": 35 }, "geometry": { "type": "Point", "coordinates": [ -84.582959714999973, 39.207015728000066 ] } },
{ "type": "Feature", "properties": { "NAME": "L MAKEUP INSTITUTE", "CITY": "LAS VEGAS", "STATE": "NV", "TOT_ENROLL": 63 }, "geometry": { "type": "Point", "coordinates": [ -115.286267777999598, 36.166571167000043 ] } },
{ "type": "Feature", "properties": { "NAME": "PURDUE UNIVERSITY NORTHWEST", "CITY": "HAMMOND", "STATE": "IN", "TOT_ENROLL": 10473 }, "geometry": { "type": "Point", "coordinates": [ -87.473811129999945, 41.580343355000053 ] } },
{ "type": "Feature", "properties": { "NAME": "PENNSYLVANIA COLLEGE OF HEALTH SCIENCES", "CITY": "LANCASTER", "STATE": "PA", "TOT_ENROLL": 1800 }, "geometry": { "type": "Point", "coordinates": [ -76.24712701899999, 40.06040499100002 ] } },
{ "type": "Feature", "properties": { "NAME": "MILAN INSTITUTE-PALM DESERT", "CITY": "PALM DESERT", "STATE": "CA", "TOT_ENROLL": 133 }, "geometry": { "type": "Point", "coordinates": [ -116.35325827499959, 33.783326798000076 ] } },
{ "type": "Feature", "properties": { "NAME": "PAUL MITCHELL THE SCHOOL-RHODE ISLAND", "CITY": "CRANSTON", "STATE": "RI", "TOT_ENROLL": 154 }, "geometry": { "type": "Point", "coordinates": [ -71.459338347999932, 41.755233384000036 ] } },
{ "type": "Feature", "properties": { "NAME": "JOHNNY MATTHEW'S HAIRDRESSING TRAINING SCHOOL", "CITY": "SALEM", "STATE": "OR", "TOT_ENROLL": 65 }, "geometry": { "type": "Point", "coordinates": [ -123.038338300999555, 44.941787754000096 ] } },
{ "type": "Feature", "properties": { "NAME": "BULL CITY DURHAM BEAUTY AND BARBER COLLEGE", "CITY": "DURHAM", "STATE": "NC", "TOT_ENROLL": 8 }, "geometry": { "type": "Point", "coordinates": [ -78.889993487999931, 35.989093112 ] } },
{ "type": "Feature", "properties": { "NAME": "PLATT COLLEGE-ANAHEIM", "CITY": "ANAHEIM", "STATE": "CA", "TOT_ENROLL": 349 }, "geometry": { "type": "Point", "coordinates": [ -117.878015022000056, 33.809333011000028 ] } },
{ "type": "Feature", "properties": { "NAME": "HEALING ARTS CENTER", "CITY": "ST. LOUIS", "STATE": "MO", "TOT_ENROLL": 140 }, "geometry": { "type": "Point", "coordinates": [ -90.387735084000099, 38.603222477000031 ] } },
{ "type": "Feature", "properties": { "NAME": "WESTCLIFF UNIVERSITY", "CITY": "IRVINE", "STATE": "CA", "TOT_ENROLL": 1760 }, "geometry": { "type": "Point", "coordinates": [ -117.835844944999636, 33.697151343 ] } },
{ "type": "Feature", "properties": { "NAME": "RANDOLPH TECHNICAL CENTER", "CITY": "ELKINS", "STATE": "WV", "TOT_ENROLL": 16 }, "geometry": { "type": "Point", "coordinates": [ -79.853154929999974, 38.891740445000018 ] } },
{ "type": "Feature", "properties": { "NAME": "LOS ANGELES PACIFIC UNIVERSITY", "CITY": "SAN DIMAS", "STATE": "CA", "TOT_ENROLL": 2360 }, "geometry": { "type": "Point", "coordinates": [ -117.871111105000253, 34.119344611000038 ] } },
{ "type": "Feature", "properties": { "NAME": "RICHPORT TECHNICAL COLLEGE", "CITY": "GURABO", "STATE": "PR", "TOT_ENROLL": 46 }, "geometry": { "type": "Point", "coordinates": [ -65.972866455, 18.254775126 ] } },
{ "type": "Feature", "properties": { "NAME": "OTTAWA UNIVERSITY-SURPRISE", "CITY": "SURPRISE", "STATE": "AZ", "TOT_ENROLL": 655 }, "geometry": { "type": "Point", "coordinates": [ -112.367944117000349, 33.628947075000042 ] } },
{ "type": "Feature", "properties": { "NAME": "BLUSH SCHOOL OF MAKEUP", "CITY": "SAN FRANCISCO", "STATE": "CA", "TOT_ENROLL": 16 }, "geometry": { "type": "Point", "coordinates": [ -122.399410410999749, 37.794946411000069 ] } },
{ "type": "Feature", "properties": { "NAME": "GWINNETT COLLEGE-MARIETTA CAMPUS", "CITY": "MARIETTA", "STATE": "GA", "TOT_ENROLL": 143 }, "geometry": { "type": "Point", "coordinates": [ -84.479185646999937, 33.928629904000061 ] } },
{ "type": "Feature", "properties": { "NAME": "CAMBRIDGE INSTITUTE OF ALLIED HEALTH & TECHNOLOGY", "CITY": "ALTAMONTE SPRINGS", "STATE": "FL", "TOT_ENROLL": 235 }, "geometry": { "type": "Point", "coordinates": [ -81.37578314299995, 28.662884944000069 ] } },
{ "type": "Feature", "properties": { "NAME": "CARSTEN INSTITUTE OF COSMETOLOGY", "CITY": "NEW YORK", "STATE": "NY", "TOT_ENROLL": 115 }, "geometry": { "type": "Point", "coordinates": [ -73.980287822999927, 40.751889172000041 ] } },
{ "type": "Feature", "properties": { "NAME": "THE COLLEGE OF HEALTH CARE PROFESSIONS-SOUTHWEST HOUSTON", "CITY": "HOUSTON", "STATE": "TX", "TOT_ENROLL": 600 }, "geometry": { "type": "Point", "coordinates": [ -95.517457373000227, 29.7018461430001 ] } },
{ "type": "Feature", "properties": { "NAME": "PALLADIUM TECHNICAL ACADEMY INC", "CITY": "TEMPLE CITY", "STATE": "CA", "TOT_ENROLL": 33 }, "geometry": { "type": "Point", "coordinates": [ -118.043606164999744, 34.09176152800007 ] } },
{ "type": "Feature", "properties": { "NAME": "INTERNATIONAL COLLEGE OF HOLISTIC STUDIES", "CITY": "SAN DIEGO", "STATE": "CA", "TOT_ENROLL": 44 }, "geometry": { "type": "Point", "coordinates": [ -117.166864830999685, 32.721140074000047 ] } },
{ "type": "Feature", "properties": { "NAME": "UNION BIBLE COLLEGE", "CITY": "WESTFIELD", "STATE": "IN", "TOT_ENROLL": 61 }, "geometry": { "type": "Point", "coordinates": [ -86.12675554499998, 40.038606883000078 ] } },
{ "type": "Feature", "properties": { "NAME": "CALIFORNIA INSTITUTE OF MEDICAL SCIENCE", "CITY": "FRESNO", "STATE": "CA", "TOT_ENROLL": 8 }, "geometry": { "type": "Point", "coordinates": [ -119.69211041199982, 36.809949852000059 ] } },
{ "type": "Feature", "properties": { "NAME": "PETS PLAYGROUND GROOMING SCHOOL", "CITY": "POMPANO BEACH", "STATE": "FL", "TOT_ENROLL": 7 }, "geometry": { "type": "Point", "coordinates": [ -80.100561103999965, 26.248026314000072 ] } },
{ "type": "Feature", "properties": { "NAME": "SAN BERNARDINO BEAUTY COLLEGE", "CITY": "SAN BERNARDINO", "STATE": "CA", "TOT_ENROLL": 117 }, "geometry": { "type": "Point", "coordinates": [ -117.285524382999711, 34.110563561000035 ] } },
{ "type": "Feature", "properties": { "NAME": "NATIONAL PERSONAL TRAINING INSTITUTE OF COLUMBUS", "CITY": "POWELL", "STATE": "OH", "TOT_ENROLL": 35 }, "geometry": { "type": "Point", "coordinates": [ -83.089731996999902, 40.144623559 ] } },
{ "type": "Feature", "properties": { "NAME": "MIAMI REGIONAL COLLEGE", "CITY": "MIAMI SPRINGS", "STATE": "FL", "TOT_ENROLL": 676 }, "geometry": { "type": "Point", "coordinates": [ -80.266992656999918, 25.810633807000084 ] } },
{ "type": "Feature", "properties": { "NAME": "SOUTHERN CAREERS INSTITUTE-HARLINGEN", "CITY": "HARLINGEN", "STATE": "TX", "TOT_ENROLL": 333 }, "geometry": { "type": "Point", "coordinates": [ -97.675326662000018, 26.203893534000041 ] } },
{ "type": "Feature", "properties": { "NAME": "MECHON L'HOYROA", "CITY": "MONSEY", "STATE": "NY", "TOT_ENROLL": 45 }, "geometry": { "type": "Point", "coordinates": [ -74.058085623999972, 41.117030739 ] } },
{ "type": "Feature", "properties": { "NAME": "PIBERRY INSTITUTE", "CITY": "HOMESTEAD", "STATE": "FL", "TOT_ENROLL": 54 }, "geometry": { "type": "Point", "coordinates": [ -80.463566112999985, 25.486325387000075 ] } },
{ "type": "Feature", "properties": { "NAME": "TRI-COMMUNITY ADULT EDUCATION", "CITY": "COVINA", "STATE": "CA", "TOT_ENROLL": 268 }, "geometry": { "type": "Point", "coordinates": [ -117.880301003000227, 34.088246678000054 ] } },
{ "type": "Feature", "properties": { "NAME": "YESHIVA OHR NAFTOLI", "CITY": "NEW WINDSOR", "STATE": "NY", "TOT_ENROLL": 18 }, "geometry": { "type": "Point", "coordinates": [ -74.046339976999946, 41.457030604000089 ] } },
{ "type": "Feature", "properties": { "NAME": "BAIS MEDRASH MAYAN HATORAH", "CITY": "LAKEWOOD", "STATE": "NJ", "TOT_ENROLL": 69 }, "geometry": { "type": "Point", "coordinates": [ -74.204233095999925, 40.10741036400001 ] } },
{ "type": "Feature", "properties": { "NAME": "UNIVERSITY OF CONNECTICUT-HARTFORD CAMPUS", "CITY": "HARTFORD", "STATE": "CT", "TOT_ENROLL": 1432 }, "geometry": { "type": "Point", "coordinates": [ -72.672440768999962, 41.762636969000027 ] } },
{ "type": "Feature", "properties": { "NAME": "YESHIVA KOLLEL TIFERETH ELIZER", "CITY": "BROOKLYN", "STATE": "NY", "TOT_ENROLL": 94 }, "geometry": { "type": "Point", "coordinates": [ -73.992228761999982, 40.637186301000028 ] } },
{ "type": "Feature", "properties": { "NAME": "LEHIGH VALLEY BARBER SCHOOL", "CITY": "BETHLEHEM", "STATE": "PA", "TOT_ENROLL": 23 }, "geometry": { "type": "Point", "coordinates": [ -75.346989254999954, 40.640027069000077 ] } },
{ "type": "Feature", "properties": { "NAME": "BLUE CLIFF COLLEGE-FAYETTEVILLE", "CITY": "FAYETTEVILLE", "STATE": "AR", "TOT_ENROLL": 197 }, "geometry": { "type": "Point", "coordinates": [ -94.144595175000191, 36.113875218000018 ] } },
{ "type": "Feature", "properties": { "NAME": "SOUTHERN STATES UNIVERSITY", "CITY": "SAN DIEGO", "STATE": "CA", "TOT_ENROLL": 355 }, "geometry": { "type": "Point", "coordinates": [ -117.201496907000276, 32.767692059000098 ] } },
{ "type": "Feature", "properties": { "NAME": "VIRGINIA UNIVERSITY OF INTEGRATIVE MEDICINE", "CITY": "FAIRFAX", "STATE": "VA", "TOT_ENROLL": 301 }, "geometry": { "type": "Point", "coordinates": [ -77.2697281, 38.844522594000054 ] } },
{ "type": "Feature", "properties": { "NAME": "NASHVILLE FILM INSTITUTE", "CITY": "NASHVILLE", "STATE": "TN", "TOT_ENROLL": 53 }, "geometry": { "type": "Point", "coordinates": [ -86.748622363999957, 36.135768360000029 ] } },
{ "type": "Feature", "properties": { "NAME": "MONROE 2 ORLEANS BOCES-CENTER FOR WORKFORCE DEVELOPMENT", "CITY": "ROCHESTER", "STATE": "NY", "TOT_ENROLL": 77 }, "geometry": { "type": "Point", "coordinates": [ -77.743987583999981, 43.152676948000043 ] } },
{ "type": "Feature", "properties": { "NAME": "WINONAH'S INTERNATIONAL SCHOOL OF COSMETOLOGY", "CITY": "HOOVER", "STATE": "AL", "TOT_ENROLL": 59 }, "geometry": { "type": "Point", "coordinates": [ -86.801592351999901, 33.37024586700003 ] } },
{ "type": "Feature", "properties": { "NAME": "YESHIVA GEDOLA TIFERES YERACHMIEL", "CITY": "LAKEWOOD", "STATE": "NJ", "TOT_ENROLL": 128 }, "geometry": { "type": "Point", "coordinates": [ -74.194377408999983, 40.103748164000052 ] } },
{ "type": "Feature", "properties": { "NAME": "CUTTING EDGE ACADEMY", "CITY": "SUCCASUNNA", "STATE": "NJ", "TOT_ENROLL": 77 }, "geometry": { "type": "Point", "coordinates": [ -74.6447615229999, 40.868793212000035 ] } },
{ "type": "Feature", "properties": { "NAME": "YESHIVA BAIS AHARON", "CITY": "LAKEWOOD", "STATE": "NJ", "TOT_ENROLL": 41 }, "geometry": { "type": "Point", "coordinates": [ -74.203005736999927, 40.10107621900007 ] } },
{ "type": "Feature", "properties": { "NAME": "MY BEAUTY & BARBER COLLEGE", "CITY": "SACRAMENTO", "STATE": "CA", "TOT_ENROLL": 57 }, "geometry": { "type": "Point", "coordinates": [ -121.431272846999931, 38.473181927000027 ] } },
{ "type": "Feature", "properties": { "NAME": "HARMONY HEALTH CARE INSTITUTE", "CITY": "MERRIMACK", "STATE": "NH", "TOT_ENROLL": 54 }, "geometry": { "type": "Point", "coordinates": [ -71.488254776999938, 42.804189550000039 ] } },
{ "type": "Feature", "properties": { "NAME": "MILAN INSTITUTE OF COSMETOLOGY-RENO", "CITY": "RENO", "STATE": "NV", "TOT_ENROLL": 156 }, "geometry": { "type": "Point", "coordinates": [ -119.788444196000114, 39.485971607000081 ] } },
{ "type": "Feature", "properties": { "NAME": "AMERICAN BEAUTY SCHOOLS", "CITY": "MIAMI", "STATE": "FL", "TOT_ENROLL": 31 }, "geometry": { "type": "Point", "coordinates": [ -80.327081614999926, 25.761547752000094 ] } },
{ "type": "Feature", "properties": { "NAME": "AMERICAN INSTITUTE OF ALTERNATIVE MEDICINE", "CITY": "EAST BRUNSWICK", "STATE": "NJ", "TOT_ENROLL": 35 }, "geometry": { "type": "Point", "coordinates": [ -74.407247896999948, 40.466047275000086 ] } },
{ "type": "Feature", "properties": { "NAME": "HOGAN INSTITUTE OF COSMETOLOGY AND ESTHETICS", "CITY": "LILBURN", "STATE": "GA", "TOT_ENROLL": 14 }, "geometry": { "type": "Point", "coordinates": [ -84.141076050000038, 33.89659618400006 ] } },
{ "type": "Feature", "properties": { "NAME": "J'S BARBER COLLEGE", "CITY": "NEW IBERIA", "STATE": "LA", "TOT_ENROLL": 36 }, "geometry": { "type": "Point", "coordinates": [ -91.82895640099963, 29.993428181000073 ] } },
{ "type": "Feature", "properties": { "NAME": "AVEDA INSTITUTE-BOISE", "CITY": "BOISE", "STATE": "ID", "TOT_ENROLL": 54 }, "geometry": { "type": "Point", "coordinates": [ -116.30995736299981, 43.620563909000083 ] } },
{ "type": "Feature", "properties": { "NAME": "POWAY ADULT SCHOOL", "CITY": "POWAY", "STATE": "CA", "TOT_ENROLL": 78 }, "geometry": { "type": "Point", "coordinates": [ -117.03583749300023, 32.978824717000073 ] } },
{ "type": "Feature", "properties": { "NAME": "VISTA ADULT SCHOOL", "CITY": "VISTA", "STATE": "CA", "TOT_ENROLL": 156 }, "geometry": { "type": "Point", "coordinates": [ -117.2402926, 33.187284557000069 ] } },
{ "type": "Feature", "properties": { "NAME": "KOR BEAUTY ACADEMY", "CITY": "PEORIA", "STATE": "AZ", "TOT_ENROLL": 14 }, "geometry": { "type": "Point", "coordinates": [ -112.220837021000335, 33.63482903000002 ] } },
{ "type": "Feature", "properties": { "NAME": "EDUMED PARTNERS", "CITY": "GOODLETTSVILLE", "STATE": "TN", "TOT_ENROLL": 40 }, "geometry": { "type": "Point", "coordinates": [ -86.70178047099999, 36.298858025000051 ] } },
{ "type": "Feature", "properties": { "NAME": "ASPEN UNIVERSITY", "CITY": "DENVER", "STATE": "CO", "TOT_ENROLL": 5424 }, "geometry": { "type": "Point", "coordinates": [ -104.939175286, 39.68610555500004 ] } },
{ "type": "Feature", "properties": { "NAME": "MASSAGE INSTITUTE OF MEMPHIS", "CITY": "MEMPHIS", "STATE": "TN", "TOT_ENROLL": 29 }, "geometry": { "type": "Point", "coordinates": [ -89.992607370999835, 35.134849012000039 ] } },
{ "type": "Feature", "properties": { "NAME": "SKIN SCIENCE INSTITUTE", "CITY": "SANDY", "STATE": "UT", "TOT_ENROLL": 146 }, "geometry": { "type": "Point", "coordinates": [ -111.851438639000307, 40.564369232000061 ] } },
{ "type": "Feature", "properties": { "NAME": "CAREER QUEST LEARNING CENTER-MT. PLEASANT", "CITY": "MOUNT PLEASANT", "STATE": "MI", "TOT_ENROLL": 60 }, "geometry": { "type": "Point", "coordinates": [ -84.768365773999903, 43.581185160000089 ] } },
{ "type": "Feature", "properties": { "NAME": "EDP UNIVERSITY OF PUERTO RICO-VILLALBA", "CITY": "VILLALBA", "STATE": "PR", "TOT_ENROLL": 69 }, "geometry": { "type": "Point", "coordinates": [ -66.50567715499993, 18.109801317000052 ] } },
{ "type": "Feature", "properties": { "NAME": "BERGIN UNIVERSITY OF CANINE STUDIES", "CITY": "PENNGROVE", "STATE": "CA", "TOT_ENROLL": 60 }, "geometry": { "type": "Point", "coordinates": [ -122.666956943000216, 38.289127212000039 ] } },
{ "type": "Feature", "properties": { "NAME": "UNIVERSITY OF WISCONSIN COLLEGES FLEX", "CITY": "MADISON", "STATE": "WI", "TOT_ENROLL": 186 }, "geometry": { "type": "Point", "coordinates": [ -89.398732100999894, 43.068154635000013 ] } },
{ "type": "Feature", "properties": { "NAME": "UNIVERSITY OF WISCONSIN-MILWAUKEE FLEX", "CITY": "MILWAUKEE", "STATE": "WI", "TOT_ENROLL": 538 }, "geometry": { "type": "Point", "coordinates": [ -87.8810146, 43.07519351600007 ] } },
{ "type": "Feature", "properties": { "NAME": "TRICOCI UNIVERSITY OF BEAUTY CULTURE-JANESVILLE", "CITY": "JANESVILLE", "STATE": "WI", "TOT_ENROLL": 58 }, "geometry": { "type": "Point", "coordinates": [ -89.048983162999988, 42.679648306000061 ] } },
{ "type": "Feature", "properties": { "NAME": "UNLIMITED COSMETOLOGY SCHOOL", "CITY": "HATTIESBURG", "STATE": "MS", "TOT_ENROLL": 22 }, "geometry": { "type": "Point", "coordinates": [ -89.304309888999953, 31.325342104000107 ] } },
{ "type": "Feature", "properties": { "NAME": "UNIVERSITY OF WISCONSIN-PARKSIDE FLEX", "CITY": "KENOSHA", "STATE": "WI", "TOT_ENROLL": 5 }, "geometry": { "type": "Point", "coordinates": [ -87.856427772999922, 42.642546282000048 ] } },
{ "type": "Feature", "properties": { "NAME": "CHAMBERLAIN UNIVERSITY-LOUISIANA", "CITY": "NEW ORLEANS", "STATE": "LA", "TOT_ENROLL": 75 }, "geometry": { "type": "Point", "coordinates": [ -90.152811899000397, 29.962593130000052 ] } },
{ "type": "Feature", "properties": { "NAME": "ADVANTAGE TECHNICAL COLLEGE", "CITY": "SAN JUAN", "STATE": "PR", "TOT_ENROLL": 46 }, "geometry": { "type": "Point", "coordinates": [ -66.081084861999926, 18.454695924000088 ] } },
{ "type": "Feature", "properties": { "NAME": "INSTITUTE OF CULINARY EDUCATION", "CITY": "PASADENA", "STATE": "CA", "TOT_ENROLL": 173 }, "geometry": { "type": "Point", "coordinates": [ -118.139368823, 34.144752375000081 ] } },
{ "type": "Feature", "properties": { "NAME": "CAPE CORAL TECHNICAL COLLEGE", "CITY": "CAPE CORAL", "STATE": "FL", "TOT_ENROLL": 335 }, "geometry": { "type": "Point", "coordinates": [ -81.976201735999922, 26.658582903 ] } },
{ "type": "Feature", "properties": { "NAME": "DIVINE CROWN BARBER & BEAUTY ACADEMY", "CITY": "HARRISBURG", "STATE": "PA", "TOT_ENROLL": 43 }, "geometry": { "type": "Point", "coordinates": [ -76.825968990999954, 40.277655815000038 ] } },
{ "type": "Feature", "properties": { "NAME": "NATIONAL AMERICAN UNIVERSITY-CAREER POINT COLLEGE TEACHOUT SITE", "CITY": "SAN ANTONIO", "STATE": "TX", "TOT_ENROLL": 42 }, "geometry": { "type": "Point", "coordinates": [ -98.5514556640004, 29.492923059000045 ] } },
{ "type": "Feature", "properties": { "NAME": "EMPIRE BEAUTY SCHOOL-TAMPA", "CITY": "TAMPA", "STATE": "FL", "TOT_ENROLL": 71 }, "geometry": { "type": "Point", "coordinates": [ -82.338274911999989, 27.941964409000054 ] } },
{ "type": "Feature", "properties": { "NAME": "EMPIRE BEAUTY SCHOOL-LAKELAND", "CITY": "LAKELAND", "STATE": "FL", "TOT_ENROLL": 77 }, "geometry": { "type": "Point", "coordinates": [ -81.972993803999913, 28.108237095999989 ] } },
{ "type": "Feature", "properties": { "NAME": "ADVANCED COLLEGE-STOCKTON", "CITY": "STOCKTON", "STATE": "CA", "TOT_ENROLL": 53 }, "geometry": { "type": "Point", "coordinates": [ -121.294580186999724, 38.025500345000047 ] } },
{ "type": "Feature", "properties": { "NAME": "GALEN COLLEGE OF NURSING-ARH", "CITY": "HAZARD", "STATE": "KY", "TOT_ENROLL": 246 }, "geometry": { "type": "Point", "coordinates": [ -83.205205486999972, 37.286148379000075 ] } },
{ "type": "Feature", "properties": { "NAME": "THE CHICAGO SCHOOL OF PROFESSIONAL PSYCHOLOGY AT SAN DIEGO", "CITY": "SAN DIEGO", "STATE": "CA", "TOT_ENROLL": 71 }, "geometry": { "type": "Point", "coordinates": [ -117.167029979999839, 32.718297517000039 ] } },
{ "type": "Feature", "properties": { "NAME": "TONI & GUY HAIRDRESSING ACADEMY-RIO RANCHO", "CITY": "RIO RANCHO", "STATE": "NM", "TOT_ENROLL": 37 }, "geometry": { "type": "Point", "coordinates": [ -106.677573018999624, 35.241048259000024 ] } },
{ "type": "Feature", "properties": { "NAME": "WRIGHT GRADUATE UNIVERSITY FOR THE REALIZATION OF HUMAN POTENTIAL", "CITY": "ELKHORN", "STATE": "WI", "TOT_ENROLL": 23 }, "geometry": { "type": "Point", "coordinates": [ -88.591548928999899, 42.767933636000045 ] } },
{ "type": "Feature", "properties": { "NAME": "PIMA MEDICAL INSTITUTE-EL PASO", "CITY": "EL PASO", "STATE": "TX", "TOT_ENROLL": 483 }, "geometry": { "type": "Point", "coordinates": [ -106.383799072000272, 31.773606012000073 ] } },
{ "type": "Feature", "properties": { "NAME": "UNITECH TRAINING ACADEMY-BATON ROUGE", "CITY": "BATON ROUGE", "STATE": "LA", "TOT_ENROLL": 54 }, "geometry": { "type": "Point", "coordinates": [ -91.063049537999945, 30.417236223000028 ] } },
{ "type": "Feature", "properties": { "NAME": "NATIONAL AMERICAN UNIVERSITY-GARDEN CITY", "CITY": "GARDEN CITY", "STATE": "KS", "TOT_ENROLL": 53 }, "geometry": { "type": "Point", "coordinates": [ -100.849233121000353, 37.970368123000085 ] } },
{ "type": "Feature", "properties": { "NAME": "OIKOS UNIVERSITY", "CITY": "OAKLAND", "STATE": "CA", "TOT_ENROLL": 86 }, "geometry": { "type": "Point", "coordinates": [ -122.199653677999635, 37.742241231000023 ] } },
{ "type": "Feature", "properties": { "NAME": "FOUR RIVERS CAREER CENTER", "CITY": "WASHINGTON", "STATE": "MO", "TOT_ENROLL": 33 }, "geometry": { "type": "Point", "coordinates": [ -91.020880757999706, 38.547738691000049 ] } },
{ "type": "Feature", "properties": { "NAME": "BERKOWITS SCHOOL OF ELECTROLYSIS", "CITY": "FOREST HILLS", "STATE": "NY", "TOT_ENROLL": 139 }, "geometry": { "type": "Point", "coordinates": [ -73.845133271999956, 40.709791274000033 ] } },
{ "type": "Feature", "properties": { "NAME": "WILLIAMSON COLLEGE OF THE TRADES", "CITY": "MEDIA", "STATE": "PA", "TOT_ENROLL": 257 }, "geometry": { "type": "Point", "coordinates": [ -75.422051492999913, 39.908024252000047 ] } },
{ "type": "Feature", "properties": { "NAME": "NO GREASE BARBER SCHOOL", "CITY": "CHARLOTTE", "STATE": "NC", "TOT_ENROLL": 11 }, "geometry": { "type": "Point", "coordinates": [ -80.891877586999911, 35.224667041 ] } },
{ "type": "Feature", "properties": { "NAME": "PIMA MEDICAL INSTITUTE-SAN MARCOS", "CITY": "SAN MARCOS", "STATE": "CA", "TOT_ENROLL": 223 }, "geometry": { "type": "Point", "coordinates": [ -117.160191854999667, 33.136902374000037 ] } },
{ "type": "Feature", "properties": { "NAME": "ROSSLYN TRAINING ACADEMY OF COSMETOLOGY", "CITY": "AGUADA", "STATE": "PR", "TOT_ENROLL": 16 }, "geometry": { "type": "Point", "coordinates": [ -67.188259807999927, 18.379240091000071 ] } },
{ "type": "Feature", "properties": { "NAME": "AMERICAN MASSAGE & BODYWORK INSTITUTE", "CITY": "VIENNA", "STATE": "VA", "TOT_ENROLL": 83 }, "geometry": { "type": "Point", "coordinates": [ -77.244750048999961, 38.926178278000052 ] } },
{ "type": "Feature", "properties": { "NAME": "KCK BEAUTY & BARBER ACADEMY", "CITY": "JACKSONVILLE", "STATE": "FL", "TOT_ENROLL": 8 }, "geometry": { "type": "Point", "coordinates": [ -81.652099126999929, 30.428130692000039 ] } },
{ "type": "Feature", "properties": { "NAME": "SOUTHERN CALIFORNIA UNIVERSITY OF HEALTH SCIENCES", "CITY": "WHITTIER", "STATE": "CA", "TOT_ENROLL": 1211 }, "geometry": { "type": "Point", "coordinates": [ -117.981893426999918, 33.92331059800005 ] } },
{ "type": "Feature", "properties": { "NAME": "THE KING'S UNIVERSITY", "CITY": "SOUTHLAKE", "STATE": "TX", "TOT_ENROLL": 660 }, "geometry": { "type": "Point", "coordinates": [ -97.121452904000165, 32.939714290000033 ] } },
{ "type": "Feature", "properties": { "NAME": "FORTIS COLLEGE-CUTLER BAY", "CITY": "CUTLER BAY", "STATE": "FL", "TOT_ENROLL": 302 }, "geometry": { "type": "Point", "coordinates": [ -80.364155209999964, 25.585541714000012 ] } },
{ "type": "Feature", "properties": { "NAME": "AMERICAN INSTITUTE-SOMERSET", "CITY": "SOMERSET", "STATE": "NJ", "TOT_ENROLL": 200 }, "geometry": { "type": "Point", "coordinates": [ -74.544205345999984, 40.550725014000051 ] } },
{ "type": "Feature", "properties": { "NAME": "EAST-WEST UNIVERSITY", "CITY": "KESHENA", "STATE": "WI", "TOT_ENROLL": 11 }, "geometry": { "type": "Point", "coordinates": [ -88.631307824999951, 44.881745280000047 ] } },
{ "type": "Feature", "properties": { "NAME": "ROSS MEDICAL EDUCATION CENTER-GRAND RAPIDS NORTH", "CITY": "GRAND RAPIDS", "STATE": "MI", "TOT_ENROLL": 96 }, "geometry": { "type": "Point", "coordinates": [ -85.628960024, 43.035281178000048 ] } },
{ "type": "Feature", "properties": { "NAME": "ROSS COLLEGE-CANTON", "CITY": "CANTON", "STATE": "OH", "TOT_ENROLL": 225 }, "geometry": { "type": "Point", "coordinates": [ -81.428960284999931, 40.844895967000092 ] } },
{ "type": "Feature", "properties": { "NAME": "ROSS MEDICAL EDUCATION CENTER - KALAMAZOO", "CITY": "KALAMAZOO", "STATE": "MI", "TOT_ENROLL": 72 }, "geometry": { "type": "Point", "coordinates": [ -85.651870067999909, 42.290576209000051 ] } },
{ "type": "Feature", "properties": { "NAME": "PURDUE UNIVERSITY GLOBAL-ST. LOUIS", "CITY": "ST. LOUIS", "STATE": "MO", "TOT_ENROLL": 278 }, "geometry": { "type": "Point", "coordinates": [ -90.449236844000168, 38.690685374000076 ] } },
{ "type": "Feature", "properties": { "NAME": "APEX ACADEMY HAIR SKIN NAILS SCHOOL OF COSMETOLOGY", "CITY": "ONTARIO", "STATE": "OH", "TOT_ENROLL": 27 }, "geometry": { "type": "Point", "coordinates": [ -82.577686176999947, 40.771759857000042 ] } },
{ "type": "Feature", "properties": { "NAME": "FIELDING GRADUATE UNIVERSITY", "CITY": "SANTA BARBARA", "STATE": "CA", "TOT_ENROLL": 989 }, "geometry": { "type": "Point", "coordinates": [ -119.717269552999682, 34.429362293000011 ] } },
{ "type": "Feature", "properties": { "NAME": "CLOVIS ADULT EDUCATION", "CITY": "CLOVIS", "STATE": "CA", "TOT_ENROLL": 752 }, "geometry": { "type": "Point", "coordinates": [ -119.689946114999515, 36.834466822 ] } },
{ "type": "Feature", "properties": { "NAME": "CASA LOMA COLLEGE-VAN NUYS", "CITY": "VAN NUYS", "STATE": "CA", "TOT_ENROLL": 175 }, "geometry": { "type": "Point", "coordinates": [ -118.457796847999944, 34.19284208 ] } },
{ "type": "Feature", "properties": { "NAME": "OTTAWA UNIVERSITY-PHOENIX", "CITY": "PHOENIX", "STATE": "AZ", "TOT_ENROLL": 809 }, "geometry": { "type": "Point", "coordinates": [ -112.113057319000248, 33.572161389000037 ] } },
{ "type": "Feature", "properties": { "NAME": "UNIVERSAL TECHNICAL INSTITUTE OF ARIZONA INC-MOTORCYCLE MECHANICS INSTITUTE DIVISION", "CITY": "PHOENIX", "STATE": "AZ", "TOT_ENROLL": 952 }, "geometry": { "type": "Point", "coordinates": [ -112.121494391999832, 33.684393355000061 ] } },
{ "type": "Feature", "properties": { "NAME": "EAST ARKANSAS COMMUNITY COLLEGE", "CITY": "FORREST CITY", "STATE": "AR", "TOT_ENROLL": 1151 }, "geometry": { "type": "Point", "coordinates": [ -90.767755021999633, 35.04168396500009 ] } },
{ "type": "Feature", "properties": { "NAME": "CALIFORNIA BAPTIST UNIVERSITY", "CITY": "RIVERSIDE", "STATE": "CA", "TOT_ENROLL": 10486 }, "geometry": { "type": "Point", "coordinates": [ -117.425699955999562, 33.928943179 ] } },
{ "type": "Feature", "properties": { "NAME": "CALIFORNIA WESTERN SCHOOL OF LAW", "CITY": "SAN DIEGO", "STATE": "CA", "TOT_ENROLL": 802 }, "geometry": { "type": "Point", "coordinates": [ -117.162600512000239, 32.721742671000065 ] } },
{ "type": "Feature", "properties": { "NAME": "SAN DIEGO CHRISTIAN COLLEGE", "CITY": "SANTEE", "STATE": "CA", "TOT_ENROLL": 525 }, "geometry": { "type": "Point", "coordinates": [ -116.97774820299972, 32.843013454000044 ] } },
{ "type": "Feature", "properties": { "NAME": "COGSWELL COLLEGE", "CITY": "SAN JOSE", "STATE": "CA", "TOT_ENROLL": 599 }, "geometry": { "type": "Point", "coordinates": [ -121.94096986400001, 37.413979834000024 ] } },
{ "type": "Feature", "properties": { "NAME": "DEVRY UNIVERSITY-CALIFORNIA", "CITY": "POMONA", "STATE": "CA", "TOT_ENROLL": 2499 }, "geometry": { "type": "Point", "coordinates": [ -117.803758527, 34.062892662000039 ] } },
{ "type": "Feature", "properties": { "NAME": "DOMINICAN UNIVERSITY OF CALIFORNIA", "CITY": "SAN RAFAEL", "STATE": "CA", "TOT_ENROLL": 1779 }, "geometry": { "type": "Point", "coordinates": [ -122.511379603999799, 37.980079155000034 ] } },
{ "type": "Feature", "properties": { "NAME": "CONCORDE CAREER INSTITUTE-JACKSONVILLE", "CITY": "JACKSONVILLE", "STATE": "FL", "TOT_ENROLL": 704 }, "geometry": { "type": "Point", "coordinates": [ -81.581669544999968, 30.238824715000074 ] } },
{ "type": "Feature", "properties": { "NAME": "CONCORDE CAREER COLLEGE-SAN DIEGO", "CITY": "SAN DIEGO", "STATE": "CA", "TOT_ENROLL": 664 }, "geometry": { "type": "Point", "coordinates": [ -117.102931088000304, 32.702795208000055 ] } },
{ "type": "Feature", "properties": { "NAME": "PALO ALTO UNIVERSITY", "CITY": "PALO ALTO", "STATE": "CA", "TOT_ENROLL": 1071 }, "geometry": { "type": "Point", "coordinates": [ -122.187501328999829, 37.382248596000075 ] } },
{ "type": "Feature", "properties": { "NAME": "EMILY GRIFFITH TECHNICAL COLLEGE", "CITY": "DENVER", "STATE": "CO", "TOT_ENROLL": 5066 }, "geometry": { "type": "Point", "coordinates": [ -104.985780762999852, 39.745621736 ] } },
{ "type": "Feature", "properties": { "NAME": "SAMUEL MERRITT UNIVERSITY", "CITY": "OAKLAND", "STATE": "CA", "TOT_ENROLL": 2054 }, "geometry": { "type": "Point", "coordinates": [ -122.264408367000016, 37.821313945000036 ] } },
{ "type": "Feature", "properties": { "NAME": "GA NAILS BEAUTY SCHOOL", "CITY": "MCALLEN", "STATE": "TX", "TOT_ENROLL": 84 }, "geometry": { "type": "Point", "coordinates": [ -98.257232808000055, 26.237612216000048 ] } },
{ "type": "Feature", "properties": { "NAME": "STONE ACADEMY-WEST HAVEN", "CITY": "WEST HAVEN", "STATE": "CT", "TOT_ENROLL": 544 }, "geometry": { "type": "Point", "coordinates": [ -72.976881007999935, 41.267449054000025 ] } },
{ "type": "Feature", "properties": { "NAME": "SOUTH UNIVERSITY-WEST PALM BEACH", "CITY": "ROYAL PALM BEACH", "STATE": "FL", "TOT_ENROLL": 692 }, "geometry": { "type": "Point", "coordinates": [ -80.199614932, 26.69238618 ] } },
{ "type": "Feature", "properties": { "NAME": "GLITZ SCHOOL OF COSMETOLOGY", "CITY": "LAS CRUCES", "STATE": "NM", "TOT_ENROLL": 87 }, "geometry": { "type": "Point", "coordinates": [ -106.7431282120004, 32.298399724999989 ] } },
{ "type": "Feature", "properties": { "NAME": "GATEWAY COMMUNITY COLLEGE", "CITY": "NEW HAVEN", "STATE": "CT", "TOT_ENROLL": 7016 }, "geometry": { "type": "Point", "coordinates": [ -72.92779544099993, 41.303954156 ] } },
{ "type": "Feature", "properties": { "NAME": "INSTITUTE OF BUDDHIST STUDIES", "CITY": "BERKELEY", "STATE": "CA", "TOT_ENROLL": 22 }, "geometry": { "type": "Point", "coordinates": [ -122.266066144000121, 37.866766767000037 ] } },
{ "type": "Feature", "properties": { "NAME": "FLORIDA TECHNICAL COLLEGE", "CITY": "ORLANDO", "STATE": "FL", "TOT_ENROLL": 3950 }, "geometry": { "type": "Point", "coordinates": [ -81.196561415999966, 28.573198701000042 ] } },
{ "type": "Feature", "properties": { "NAME": "DELTA DESIGNS COSMETOLOGY SCHOOL", "CITY": "WYNNE", "STATE": "AR", "TOT_ENROLL": 45 }, "geometry": { "type": "Point", "coordinates": [ -90.785860249000194, 35.232187863000057 ] } },
{ "type": "Feature", "properties": { "NAME": "GEORGE STONE TECHNICAL COLLEGE", "CITY": "PENSACOLA", "STATE": "FL", "TOT_ENROLL": 595 }, "geometry": { "type": "Point", "coordinates": [ -87.290676762000018, 30.487586655 ] } },
{ "type": "Feature", "properties": { "NAME": "NORTHERN TECHNICAL COLLEGE", "CITY": "PINE BLUFF", "STATE": "AR", "TOT_ENROLL": 29 }, "geometry": { "type": "Point", "coordinates": [ -91.979766341999792, 34.214168209000036 ] } },
{ "type": "Feature", "properties": { "NAME": "ADVANTAGE CAREER INSTITUTE", "CITY": "EATONTOWN", "STATE": "NJ", "TOT_ENROLL": 104 }, "geometry": { "type": "Point", "coordinates": [ -74.049645191, 40.279117192000086 ] } },
{ "type": "Feature", "properties": { "NAME": "RIDGE TECHNICAL COLLEGE", "CITY": "WINTER HAVEN", "STATE": "FL", "TOT_ENROLL": 305 }, "geometry": { "type": "Point", "coordinates": [ -81.653470496999944, 28.077512235 ] } },
{ "type": "Feature", "properties": { "NAME": "SAYBROOK UNIVERSITY", "CITY": "OAKLAND", "STATE": "CA", "TOT_ENROLL": 687 }, "geometry": { "type": "Point", "coordinates": [ -118.152098439999691, 34.153029282999988 ] } },
{ "type": "Feature", "properties": { "NAME": "WEBBER INTERNATIONAL UNIVERSITY", "CITY": "BABSON PARK", "STATE": "FL", "TOT_ENROLL": 694 }, "geometry": { "type": "Point", "coordinates": [ -81.53093240500003, 27.837266342000074 ] } },
{ "type": "Feature", "properties": { "NAME": "STRAND INSTITUTE OF BEAUTY & ESTHETICS", "CITY": "PORTLAND", "STATE": "TX", "TOT_ENROLL": 11 }, "geometry": { "type": "Point", "coordinates": [ -97.319626938999733, 27.878884968000072 ] } },
{ "type": "Feature", "properties": { "NAME": "INSTITUTO TECNOLOGICO DE PUERTO RICO-RECINTO DE GUAYAMA", "CITY": "GUAYAMA", "STATE": "PR", "TOT_ENROLL": 498 }, "geometry": { "type": "Point", "coordinates": [ -66.117812474999894, 17.978040144999987 ] } },
{ "type": "Feature", "properties": { "NAME": "RASMUSSEN COLLEGE-FLORIDA", "CITY": "OCALA", "STATE": "FL", "TOT_ENROLL": 8760 }, "geometry": { "type": "Point", "coordinates": [ -82.197339465999917, 29.140090148000095 ] } },
{ "type": "Feature", "properties": { "NAME": "GEORGIA CAREER INSTITUTE", "CITY": "CONYERS", "STATE": "GA", "TOT_ENROLL": 430 }, "geometry": { "type": "Point", "coordinates": [ -84.018479622999976, 33.64345998099999 ] } },
{ "type": "Feature", "properties": { "NAME": "POINT UNIVERSITY", "CITY": "WEST POINT", "STATE": "GA", "TOT_ENROLL": 2248 }, "geometry": { "type": "Point", "coordinates": [ -85.18489639699996, 32.879102965000087 ] } },
{ "type": "Feature", "properties": { "NAME": "EMORY UNIVERSITY", "CITY": "ATLANTA", "STATE": "GA", "TOT_ENROLL": 14458 }, "geometry": { "type": "Point", "coordinates": [ -84.325789149999977, 33.7932769230001 ] } },
{ "type": "Feature", "properties": { "NAME": "ARKANSAS WELDING ACADEMY", "CITY": "JACKSONVILLE", "STATE": "AR", "TOT_ENROLL": 15 }, "geometry": { "type": "Point", "coordinates": [ -92.139872922000208, 34.883470941000013 ] } },
{ "type": "Feature", "properties": { "NAME": "HERZING UNIVERSITY-ATLANTA", "CITY": "ATLANTA", "STATE": "GA", "TOT_ENROLL": 762 }, "geometry": { "type": "Point", "coordinates": [ -84.387451066999986, 33.754230847000073 ] } },
{ "type": "Feature", "properties": { "NAME": "COLUMBIA COLLEGE CHICAGO", "CITY": "CHICAGO", "STATE": "IL", "TOT_ENROLL": 6825 }, "geometry": { "type": "Point", "coordinates": [ -87.625366160999945, 41.874210898000065 ] } },
{ "type": "Feature", "properties": { "NAME": "HAWAII PACIFIC UNIVERSITY", "CITY": "HONOLULU", "STATE": "HI", "TOT_ENROLL": 4086 }, "geometry": { "type": "Point", "coordinates": [ -157.859747101000323, 21.310362234000014 ] } },
{ "type": "Feature", "properties": { "NAME": "LINCOLN COLLEGE OF TECHNOLOGY-MELROSE PARK", "CITY": "MELROSE PARK", "STATE": "IL", "TOT_ENROLL": 809 }, "geometry": { "type": "Point", "coordinates": [ -87.83203479300002, 41.905500319000026 ] } },
{ "type": "Feature", "properties": { "NAME": "CENTRALIA BEAUTY COLLEGE", "CITY": "CENTRALIA", "STATE": "WA", "TOT_ENROLL": 58 }, "geometry": { "type": "Point", "coordinates": [ -122.955262656999579, 46.714676845 ] } },
{ "type": "Feature", "properties": { "NAME": "RESURRECTION UNIVERSITY", "CITY": "CHICAGO", "STATE": "IL", "TOT_ENROLL": 833 }, "geometry": { "type": "Point", "coordinates": [ -87.685535259999952, 41.907157865000059 ] } },
{ "type": "Feature", "properties": { "NAME": "FLINT HILLS TECHNICAL COLLEGE", "CITY": "EMPORIA", "STATE": "KS", "TOT_ENROLL": 1425 }, "geometry": { "type": "Point", "coordinates": [ -96.224158892000105, 38.418859795000039 ] } },
{ "type": "Feature", "properties": { "NAME": "GALEN COLLEGE OF NURSING-LOUISVILLE", "CITY": "LOUISVILLE", "STATE": "KY", "TOT_ENROLL": 1954 }, "geometry": { "type": "Point", "coordinates": [ -85.69594766299997, 38.276994633000093 ] } },
{ "type": "Feature", "properties": { "NAME": "HOPKINSVILLE COMMUNITY COLLEGE", "CITY": "HOPKINSVILLE", "STATE": "KY", "TOT_ENROLL": 2748 }, "geometry": { "type": "Point", "coordinates": [ -87.488299718999897, 36.882673516000054 ] } },
{ "type": "Feature", "properties": { "NAME": "BNOS ZION OF BOBOV SEMINARY", "CITY": "BROOKLYN", "STATE": "NY", "TOT_ENROLL": 122 }, "geometry": { "type": "Point", "coordinates": [ -73.990909934999934, 40.633078566000037 ] } },
{ "type": "Feature", "properties": { "NAME": "CAROLINA CAREER COLLEGE", "CITY": "DURHAM", "STATE": "NC", "TOT_ENROLL": 60 }, "geometry": { "type": "Point", "coordinates": [ -78.851912126999977, 35.88082148500007 ] } },
{ "type": "Feature", "properties": { "NAME": "ABC ADULT SCHOOL", "CITY": "CERRITOS", "STATE": "CA", "TOT_ENROLL": 90 }, "geometry": { "type": "Point", "coordinates": [ -118.070109517999953, 33.878197654000033 ] } },
{ "type": "Feature", "properties": { "NAME": "JEFFERSON COMMUNITY AND TECHNICAL COLLEGE", "CITY": "LOUISVILLE", "STATE": "KY", "TOT_ENROLL": 11699 }, "geometry": { "type": "Point", "coordinates": [ -85.752895722999938, 38.246244380000036 ] } },
{ "type": "Feature", "properties": { "NAME": "PURDUE UNIVERSITY GLOBAL-LEWISTON", "CITY": "LEWISTON", "STATE": "ME", "TOT_ENROLL": 503 }, "geometry": { "type": "Point", "coordinates": [ -70.32391303199995, 43.639001520000086 ] } },
{ "type": "Feature", "properties": { "NAME": "ITI TECHNICAL COLLEGE", "CITY": "BATON ROUGE", "STATE": "LA", "TOT_ENROLL": 663 }, "geometry": { "type": "Point", "coordinates": [ -91.030478113999862, 30.369843387000081 ] } },
{ "type": "Feature", "properties": { "NAME": "FLETCHER TECHNICAL COMMUNITY COLLEGE", "CITY": "SCHRIEVER", "STATE": "LA", "TOT_ENROLL": 2161 }, "geometry": { "type": "Point", "coordinates": [ -90.811625081999907, 29.690897436000061 ] } },
{ "type": "Feature", "properties": { "NAME": "LINCOLN COLLEGE OF TECHNOLOGY-COLUMBIA", "CITY": "COLUMBIA", "STATE": "MD", "TOT_ENROLL": 749 }, "geometry": { "type": "Point", "coordinates": [ -76.836373707999968, 39.174305998000065 ] } },
{ "type": "Feature", "properties": { "NAME": "POLYTECH ADULT EDUCATION", "CITY": "WOODSIDE", "STATE": "DE", "TOT_ENROLL": 317 }, "geometry": { "type": "Point", "coordinates": [ -75.545929641999976, 39.072156829000036 ] } },
{ "type": "Feature", "properties": { "NAME": "BAY STATE COLLEGE", "CITY": "BOSTON", "STATE": "MA", "TOT_ENROLL": 700 }, "geometry": { "type": "Point", "coordinates": [ -71.076899671999968, 42.351811339000051 ] } },
{ "type": "Feature", "properties": { "NAME": "BERKSHIRE COMMUNITY COLLEGE", "CITY": "PITTSFIELD", "STATE": "MA", "TOT_ENROLL": 1696 }, "geometry": { "type": "Point", "coordinates": [ -73.315287236, 42.459580627000058 ] } },
{ "type": "Feature", "properties": { "NAME": "NORTH AMERICAN TRADE SCHOOLS", "CITY": "BALTIMORE", "STATE": "MD", "TOT_ENROLL": 453 }, "geometry": { "type": "Point", "coordinates": [ -76.75141221199992, 39.308515587000073 ] } },
{ "type": "Feature", "properties": { "NAME": "INTERNATIONAL BARBER COLLEGE", "CITY": "CHANDLER", "STATE": "AZ", "TOT_ENROLL": 13 }, "geometry": { "type": "Point", "coordinates": [ -111.966346417999731, 33.30602316500002 ] } },
{ "type": "Feature", "properties": { "NAME": "CHRISTINA AND COMPANY EDUCATION CENTER", "CITY": "LAFAYETTE", "STATE": "IN", "TOT_ENROLL": 4 }, "geometry": { "type": "Point", "coordinates": [ -86.815294670999947, 40.414060696000014 ] } },
{ "type": "Feature", "properties": { "NAME": "INSTITUTE OF MEDICAL ULTRASOUND", "CITY": "ATLANTA", "STATE": "GA", "TOT_ENROLL": 22 }, "geometry": { "type": "Point", "coordinates": [ -84.387367284999982, 33.76016114200003 ] } },
{ "type": "Feature", "properties": { "NAME": "MYSTROS BARBER ACADEMY", "CITY": "HOUSTON", "STATE": "TX", "TOT_ENROLL": 7 }, "geometry": { "type": "Point", "coordinates": [ -95.453011471999616, 30.013962042000045 ] } },
{ "type": "Feature", "properties": { "NAME": "EUROPEAN MEDICAL SCHOOL OF MASSAGE", "CITY": "SINKING SPRING", "STATE": "PA", "TOT_ENROLL": 17 }, "geometry": { "type": "Point", "coordinates": [ -76.008226255999929, 40.319336857000039 ] } },
{ "type": "Feature", "properties": { "NAME": "YESHIVA GEDOLAH TIFERES BORUCH", "CITY": "NORTH PLAINFIELD", "STATE": "NJ", "TOT_ENROLL": 63 }, "geometry": { "type": "Point", "coordinates": [ -74.434394789999942, 40.619343003000054 ] } },
{ "type": "Feature", "properties": { "NAME": "YESHIVA CHEMDAS HATORAH", "CITY": "LAKEWOOD", "STATE": "NJ", "TOT_ENROLL": 63 }, "geometry": { "type": "Point", "coordinates": [ -74.229255188999915, 40.063508617000046 ] } },
{ "type": "Feature", "properties": { "NAME": "BROWN BEAUTY BARBER SCHOOL", "CITY": "BESSEMER", "STATE": "AL", "TOT_ENROLL": 21 }, "geometry": { "type": "Point", "coordinates": [ -86.953012055, 33.40006578600002 ] } },
{ "type": "Feature", "properties": { "NAME": "WOMEN'S INSTITUTE OF TORAH SEMINARY", "CITY": "BALTIMORE", "STATE": "MD", "TOT_ENROLL": 72 }, "geometry": { "type": "Point", "coordinates": [ -76.699347158999956, 39.361250540000071 ] } },
{ "type": "Feature", "properties": { "NAME": "YESHIVA GEDOLAH KEREN HATORAH", "CITY": "LAKEWOOD", "STATE": "NJ", "TOT_ENROLL": 147 }, "geometry": { "type": "Point", "coordinates": [ -74.184391423999983, 40.109232997000049 ] } },
{ "type": "Feature", "properties": { "NAME": "REXBURG COLLEGE OF MASSAGE THERAPY", "CITY": "REXBURG", "STATE": "ID", "TOT_ENROLL": 46 }, "geometry": { "type": "Point", "coordinates": [ -111.803214473999702, 43.812459223000047 ] } },
{ "type": "Feature", "properties": { "NAME": "NEO-ESTHETIQUE EUROPEAN INSTITUTE", "CITY": "SAN JUAN", "STATE": "PR", "TOT_ENROLL": 183 }, "geometry": { "type": "Point", "coordinates": [ -66.057697913, 18.363955095000083 ] } },
{ "type": "Feature", "properties": { "NAME": "YESHIVA GEDOLAH OF CLIFFWOOD", "CITY": "KEYPORT", "STATE": "NJ", "TOT_ENROLL": 84 }, "geometry": { "type": "Point", "coordinates": [ -74.22427415599995, 40.442252394000036 ] } },
{ "type": "Feature", "properties": { "NAME": "GOSHEN SCHOOL OF COSMETOLOGY", "CITY": "CLEVELAND", "STATE": "MS", "TOT_ENROLL": 39 }, "geometry": { "type": "Point", "coordinates": [ -90.713777831000272, 33.755379821000091 ] } },
{ "type": "Feature", "properties": { "NAME": "IBS SCHOOL OF COSMETOLOGY AND MASSAGE", "CITY": "KAHULUI", "STATE": "HI", "TOT_ENROLL": 60 }, "geometry": { "type": "Point", "coordinates": [ -156.462803884999772, 20.892819637000066 ] } },
{ "type": "Feature", "properties": { "NAME": "UR BEAUTY & BARBER ACADEMY", "CITY": "SEBRING", "STATE": "FL", "TOT_ENROLL": 35 }, "geometry": { "type": "Point", "coordinates": [ -81.503576100999979, 27.535834325000014 ] } },
{ "type": "Feature", "properties": { "NAME": "EMERSON COLLEGE", "CITY": "BOSTON", "STATE": "MA", "TOT_ENROLL": 4573 }, "geometry": { "type": "Point", "coordinates": [ -71.06552070299999, 42.352138584000059 ] } },
{ "type": "Feature", "properties": { "NAME": "URBAN BARBER COLLEGE", "CITY": "CONCORD", "STATE": "CA", "TOT_ENROLL": 104 }, "geometry": { "type": "Point", "coordinates": [ -122.039162480000186, 37.975022371000072 ] } },
{ "type": "Feature", "properties": { "NAME": "YESHIVAS EMEK HATORAH", "CITY": "HOWELL", "STATE": "NJ", "TOT_ENROLL": 46 }, "geometry": { "type": "Point", "coordinates": [ -74.232068236999936, 40.112533412000076 ] } },
{ "type": "Feature", "properties": { "NAME": "TRANSITIONS CAREER INSTITUTE SCHOOL OF NURSING", "CITY": "FLUSHING", "STATE": "NY", "TOT_ENROLL": 76 }, "geometry": { "type": "Point", "coordinates": [ -73.836430648999922, 40.770595023000027 ] } },
{ "type": "Feature", "properties": { "NAME": "NEW ENGLAND COLLEGE OF OPTOMETRY", "CITY": "BOSTON", "STATE": "MA", "TOT_ENROLL": 522 }, "geometry": { "type": "Point", "coordinates": [ -71.086866219999919, 42.351885580000044 ] } },
{ "type": "Feature", "properties": { "NAME": "SUNCOAST TECHNICAL EDUCATION CENTER", "CITY": "BROOKSVILLE", "STATE": "FL", "TOT_ENROLL": 54 }, "geometry": { "type": "Point", "coordinates": [ -82.463393992999954, 28.488299384000072 ] } },
{ "type": "Feature", "properties": { "NAME": "NORTH SHORE COMMUNITY COLLEGE", "CITY": "DANVERS", "STATE": "MA", "TOT_ENROLL": 5763 }, "geometry": { "type": "Point", "coordinates": [ -70.968147868999964, 42.589991030000107 ] } },
{ "type": "Feature", "properties": { "NAME": "STACEY JAMES INSTITUTE", "CITY": "PARKER", "STATE": "CO", "TOT_ENROLL": 24 }, "geometry": { "type": "Point", "coordinates": [ -104.79479143199957, 39.533165552000092 ] } },
{ "type": "Feature", "properties": { "NAME": "MERIDIAN UNIVERSITY", "CITY": "PETALUMA", "STATE": "CA", "TOT_ENROLL": 138 }, "geometry": { "type": "Point", "coordinates": [ -122.640095048999541, 38.230847768000032 ] } },
{ "type": "Feature", "properties": { "NAME": "SEMINARY BNOS CHAIM", "CITY": "LAKEWOOD", "STATE": "NJ", "TOT_ENROLL": 159 }, "geometry": { "type": "Point", "coordinates": [ -74.246766199999939, 40.098453853000109 ] } },
{ "type": "Feature", "properties": { "NAME": "AVENUE ACADEMY, A COSMETOLOGY INSTITUTE", "CITY": "ALBUQUERQUE", "STATE": "NM", "TOT_ENROLL": 40 }, "geometry": { "type": "Point", "coordinates": [ -106.570333319999676, 35.10710737199999 ] } },
{ "type": "Feature", "properties": { "NAME": "SALON PROFESSIONAL ACADEMY OF SAN ANTONIO", "CITY": "SAN ANTONIO", "STATE": "TX", "TOT_ENROLL": 55 }, "geometry": { "type": "Point", "coordinates": [ -98.470100496000043, 29.593612019000034 ] } },
{ "type": "Feature", "properties": { "NAME": "SIMMONS UNIVERSITY", "CITY": "BOSTON", "STATE": "MA", "TOT_ENROLL": 6082 }, "geometry": { "type": "Point", "coordinates": [ -71.100008911999964, 42.339399073000045 ] } },
{ "type": "Feature", "properties": { "NAME": "RED LAKE NATION COLLEGE", "CITY": "RED LAKE", "STATE": "MN", "TOT_ENROLL": 143 }, "geometry": { "type": "Point", "coordinates": [ -95.009853720999743, 47.880093064000015 ] } },
{ "type": "Feature", "properties": { "NAME": "MIAT COLLEGE OF TECHNOLOGY", "CITY": "CANTON", "STATE": "MI", "TOT_ENROLL": 845 }, "geometry": { "type": "Point", "coordinates": [ -83.445598226999977, 42.28623901900005 ] } },
{ "type": "Feature", "properties": { "NAME": "METROPOLITAN COMMUNITY COLLEGE-KANSAS CITY", "CITY": "KANSAS CITY", "STATE": "MO", "TOT_ENROLL": 16351 }, "geometry": { "type": "Point", "coordinates": [ -94.590478760000366, 39.068581512999984 ] } },
{ "type": "Feature", "properties": { "NAME": "COLLEGE OF THE OZARKS", "CITY": "POINT LOOKOUT", "STATE": "MO", "TOT_ENROLL": 1565 }, "geometry": { "type": "Point", "coordinates": [ -93.239518396999969, 36.616651669000092 ] } },
{ "type": "Feature", "properties": { "NAME": "PRINCESS INSTITUTE OF BEAUTY", "CITY": "REEDLEY", "STATE": "CA", "TOT_ENROLL": 24 }, "geometry": { "type": "Point", "coordinates": [ -119.431741065999802, 36.603672557999985 ] } },
{ "type": "Feature", "properties": { "NAME": "SAINT LOUIS COMMUNITY COLLEGE", "CITY": "BRIDGETON", "STATE": "MO", "TOT_ENROLL": 18157 }, "geometry": { "type": "Point", "coordinates": [ -90.287432821999687, 38.768466333999989 ] } },
{ "type": "Feature", "properties": { "NAME": "SAINT LUKE'S COLLEGE OF HEALTH SCIENCES", "CITY": "KANSAS CITY", "STATE": "MO", "TOT_ENROLL": 665 }, "geometry": { "type": "Point", "coordinates": [ -94.594665224000309, 39.051868083000052 ] } },
{ "type": "Feature", "properties": { "NAME": "VOGUE INTERNATIONAL ACADEMY", "CITY": "HOUSTON", "STATE": "TX", "TOT_ENROLL": 4 }, "geometry": { "type": "Point", "coordinates": [ -95.639335148999905, 29.734503340000074 ] } },
{ "type": "Feature", "properties": { "NAME": "BLACKFEET COMMUNITY COLLEGE", "CITY": "BROWNING", "STATE": "MT", "TOT_ENROLL": 305 }, "geometry": { "type": "Point", "coordinates": [ -113.009314339000269, 48.551873239 ] } },
{ "type": "Feature", "properties": { "NAME": "CAREER COLLEGE OF NORTHERN NEVADA", "CITY": "SPARKS", "STATE": "NV", "TOT_ENROLL": 359 }, "geometry": { "type": "Point", "coordinates": [ -119.719392914999602, 39.540908178000052 ] } },
{ "type": "Feature", "properties": { "NAME": "UNIVERSITY OF NEW HAMPSHIRE AT MANCHESTER", "CITY": "MANCHESTER", "STATE": "NH", "TOT_ENROLL": 750 }, "geometry": { "type": "Point", "coordinates": [ -71.468847187999984, 42.987020305000016 ] } },
{ "type": "Feature", "properties": { "NAME": "INDEPENDENT TRAINING & APPRENTICESHIP PROGRAM", "CITY": "SACRAMENTO", "STATE": "CA", "TOT_ENROLL": 26 }, "geometry": { "type": "Point", "coordinates": [ -121.327505869999911, 38.572169226000035 ] } },
{ "type": "Feature", "properties": { "NAME": "VICTORY CAREER COLLEGE", "CITY": "TORRANCE", "STATE": "CA", "TOT_ENROLL": 97 }, "geometry": { "type": "Point", "coordinates": [ -118.291679432000052, 33.854782578000012 ] } },
{ "type": "Feature", "properties": { "NAME": "SOUTHEASTERN ESTHETICS INSTITUTE", "CITY": "COLUMBIA", "STATE": "SC", "TOT_ENROLL": 119 }, "geometry": { "type": "Point", "coordinates": [ -81.039500512999965, 34.000134113000065 ] } },
{ "type": "Feature", "properties": { "NAME": "INSTALLER INSTITUTE", "CITY": "HOLLY HILL", "STATE": "FL", "TOT_ENROLL": 48 }, "geometry": { "type": "Point", "coordinates": [ -81.04681817, 29.254595697000063 ] } },
{ "type": "Feature", "properties": { "NAME": "GREAT BAY COMMUNITY COLLEGE", "CITY": "PORTSMOUTH", "STATE": "NH", "TOT_ENROLL": 1887 }, "geometry": { "type": "Point", "coordinates": [ -70.79879994599996, 43.072108825000029 ] } },
{ "type": "Feature", "properties": { "NAME": "CARIS COLLEGE", "CITY": "JEFFERSONVILLE", "STATE": "IN", "TOT_ENROLL": 66 }, "geometry": { "type": "Point", "coordinates": [ -85.710102681999984, 38.32646531900005 ] } },
{ "type": "Feature", "properties": { "NAME": "GRANITE STATE COLLEGE", "CITY": "CONCORD", "STATE": "NH", "TOT_ENROLL": 2025 }, "geometry": { "type": "Point", "coordinates": [ -71.527233447999947, 43.19295231600006 ] } },
{ "type": "Feature", "properties": { "NAME": "CONTRA COSTA MEDICAL CAREER COLLEGE", "CITY": "ANTIOCH", "STATE": "CA", "TOT_ENROLL": 963 }, "geometry": { "type": "Point", "coordinates": [ -121.801637743999535, 37.976819258000027 ] } },
{ "type": "Feature", "properties": { "NAME": "ANOUSHEH SCHOOL OF HAIR", "CITY": "BINGHAMTON", "STATE": "NY", "TOT_ENROLL": 10 }, "geometry": { "type": "Point", "coordinates": [ -75.91733983099995, 42.087517366000071 ] } },
{ "type": "Feature", "properties": { "NAME": "RUTGERS UNIVERSITY-NEW BRUNSWICK", "CITY": "NEW BRUNSWICK", "STATE": "NJ", "TOT_ENROLL": 50254 }, "geometry": { "type": "Point", "coordinates": [ -74.44702401899994, 40.499525270000063 ] } },
{ "type": "Feature", "properties": { "NAME": "AMERICAN MUSICAL AND DRAMATIC ACADEMY", "CITY": "NEW YORK", "STATE": "NY", "TOT_ENROLL": 1676 }, "geometry": { "type": "Point", "coordinates": [ -73.987687662000013, 40.772323803000042 ] } },
{ "type": "Feature", "properties": { "NAME": "ANOTHER LEVEL BARBERING AND COSMETOLOGY SCHOOL", "CITY": "PETERSBURG", "STATE": "VA", "TOT_ENROLL": 42 }, "geometry": { "type": "Point", "coordinates": [ -77.403830107999923, 37.228605002000052 ] } },
{ "type": "Feature", "properties": { "NAME": "HUDSON COUNTY COMMUNITY COLLEGE", "CITY": "JERSEY CITY", "STATE": "NJ", "TOT_ENROLL": 8408 }, "geometry": { "type": "Point", "coordinates": [ -74.062782628000022, 40.731110295000065 ] } },
{ "type": "Feature", "properties": { "NAME": "THOMAS EDISON STATE UNIVERSITY", "CITY": "TRENTON", "STATE": "NJ", "TOT_ENROLL": 10934 }, "geometry": { "type": "Point", "coordinates": [ -74.768583490999987, 40.220398694000025 ] } },
{ "type": "Feature", "properties": { "NAME": "LINCOLN TECHNICAL INSTITUTE-ISELIN", "CITY": "ISELIN", "STATE": "NJ", "TOT_ENROLL": 459 }, "geometry": { "type": "Point", "coordinates": [ -74.309059787999985, 40.559504736000065 ] } },
{ "type": "Feature", "properties": { "NAME": "ELITE ACADEMY OF HAIR DESIGN", "CITY": "BELLAIRE", "STATE": "OH", "TOT_ENROLL": 32 }, "geometry": { "type": "Point", "coordinates": [ -80.744610646999945, 40.014608175000063 ] } },
{ "type": "Feature", "properties": { "NAME": "BERKELEY COLLEGE-NEW YORK", "CITY": "NEW YORK", "STATE": "NY", "TOT_ENROLL": 3696 }, "geometry": { "type": "Point", "coordinates": [ -73.9795219599999, 40.753887067000015 ] } },
{ "type": "Feature", "properties": { "NAME": "AMSLEE INSTITUTE", "CITY": "SARASOTA", "STATE": "FL", "TOT_ENROLL": 5 }, "geometry": { "type": "Point", "coordinates": [ -82.433622707999973, 27.379742996000076 ] } },
{ "type": "Feature", "properties": { "NAME": "THE SALON PROFESSIONAL ACADEMY-GEORGETOWN", "CITY": "GEORGETOWN", "STATE": "TX", "TOT_ENROLL": 37 }, "geometry": { "type": "Point", "coordinates": [ -97.687873487000275, 30.635803594 ] } },
{ "type": "Feature", "properties": { "NAME": "CENTRAL YESHIVA TOMCHEI TMIMIM LUBAVITZ", "CITY": "BROOKLYN", "STATE": "NY", "TOT_ENROLL": 536 }, "geometry": { "type": "Point", "coordinates": [ -73.938739292, 40.669691075000081 ] } },
{ "type": "Feature", "properties": { "NAME": "METROPOLITAN COLLEGE OF NEW YORK", "CITY": "NEW YORK", "STATE": "NY", "TOT_ENROLL": 1027 }, "geometry": { "type": "Point", "coordinates": [ -74.014715042999953, 40.708617088000025 ] } },
{ "type": "Feature", "properties": { "NAME": "ST PAUL'S SCHOOL OF NURSING-QUEENS", "CITY": "REGO PARK", "STATE": "NY", "TOT_ENROLL": 552 }, "geometry": { "type": "Point", "coordinates": [ -73.85854743299997, 40.729194550000024 ] } },
{ "type": "Feature", "properties": { "NAME": "HELENE FULD COLLEGE OF NURSING", "CITY": "NEW YORK", "STATE": "NY", "TOT_ENROLL": 488 }, "geometry": { "type": "Point", "coordinates": [ -73.943317033999989, 40.802498924000083 ] } },
{ "type": "Feature", "properties": { "NAME": "HILBERT COLLEGE", "CITY": "HAMBURG", "STATE": "NY", "TOT_ENROLL": 764 }, "geometry": { "type": "Point", "coordinates": [ -78.820238418, 42.754673797000081 ] } },
{ "type": "Feature", "properties": { "NAME": "HUNTER BUSINESS SCHOOL", "CITY": "LEVITTOWN", "STATE": "NY", "TOT_ENROLL": 1093 }, "geometry": { "type": "Point", "coordinates": [ -73.500883811999955, 40.727804323000051 ] } },
{ "type": "Feature", "properties": { "NAME": "LIM COLLEGE", "CITY": "NEW YORK", "STATE": "NY", "TOT_ENROLL": 1781 }, "geometry": { "type": "Point", "coordinates": [ -73.975276988999923, 40.759831099000017 ] } },
{ "type": "Feature", "properties": { "NAME": "LONG ISLAND BUSINESS INSTITUTE", "CITY": "FLUSHING", "STATE": "NY", "TOT_ENROLL": 665 }, "geometry": { "type": "Point", "coordinates": [ -73.829423292999891, 40.760235039000037 ] } },
{ "type": "Feature", "properties": { "NAME": "MARYMOUNT MANHATTAN COLLEGE", "CITY": "NEW YORK", "STATE": "NY", "TOT_ENROLL": 2063 }, "geometry": { "type": "Point", "coordinates": [ -73.959749822999953, 40.768768679000061 ] } },
{ "type": "Feature", "properties": { "NAME": "THE NEW SCHOOL", "CITY": "NEW YORK", "STATE": "NY", "TOT_ENROLL": 10544 }, "geometry": { "type": "Point", "coordinates": [ -73.997152705999952, 40.735540922000048 ] } },
{ "type": "Feature", "properties": { "NAME": "PLAZA COLLEGE", "CITY": "FOREST HILLS", "STATE": "NY", "TOT_ENROLL": 902 }, "geometry": { "type": "Point", "coordinates": [ -73.83113236, 40.714851731000074 ] } },
{ "type": "Feature", "properties": { "NAME": "ST PAUL'S SCHOOL OF NURSING-STATEN ISLAND", "CITY": "STATEN ISLAND", "STATE": "NY", "TOT_ENROLL": 579 }, "geometry": { "type": "Point", "coordinates": [ -74.179725317999953, 40.605424673000051 ] } },
{ "type": "Feature", "properties": { "NAME": "CHAMPION CHRISTIAN COLLEGE", "CITY": "HOT SPRINGS", "STATE": "AR", "TOT_ENROLL": 87 }, "geometry": { "type": "Point", "coordinates": [ -93.065580838999836, 34.500139528000041 ] } },
{ "type": "Feature", "properties": { "NAME": "UNIVERSITY AT BUFFALO", "CITY": "BUFFALO", "STATE": "NY", "TOT_ENROLL": 31503 }, "geometry": { "type": "Point", "coordinates": [ -78.78960889, 43.001042090000048 ] } },
{ "type": "Feature", "properties": { "NAME": "SUNY EMPIRE STATE COLLEGE", "CITY": "SARATOGA SPRINGS", "STATE": "NY", "TOT_ENROLL": 10424 }, "geometry": { "type": "Point", "coordinates": [ -73.782443712, 43.077207221000023 ] } },
{ "type": "Feature", "properties": { "NAME": "SUNY MARITIME COLLEGE", "CITY": "THROGGS NECK", "STATE": "NY", "TOT_ENROLL": 1734 }, "geometry": { "type": "Point", "coordinates": [ -73.801106343999976, 40.809198822000049 ] } },
{ "type": "Feature", "properties": { "NAME": "TOURO COLLEGE", "CITY": "NEW YORK", "STATE": "NY", "TOT_ENROLL": 11800 }, "geometry": { "type": "Point", "coordinates": [ -73.989521810000014, 40.753392465000033 ] } },
{ "type": "Feature", "properties": { "NAME": "NATIONAL AMERICAN UNIVERSITY-RAPID CITY", "CITY": "RAPID CITY", "STATE": "SD", "TOT_ENROLL": 1665 }, "geometry": { "type": "Point", "coordinates": [ -103.250305913999966, 44.031425476000067 ] } },
{ "type": "Feature", "properties": { "NAME": "AIR FORCE INSTITUTE OF TECHNOLOGY-GRADUATE SCHOOL OF ENGINEERING & MANAGEMENT", "CITY": "WRIGHT-PATTERSON AFB", "STATE": "OH", "TOT_ENROLL": 881 }, "geometry": { "type": "Point", "coordinates": [ -84.082563968999978, 39.78283762500007 ] } },
{ "type": "Feature", "properties": { "NAME": "UNIVERSITY OF CINCINNATI-CLERMONT COLLEGE", "CITY": "BATAVIA", "STATE": "OH", "TOT_ENROLL": 3017 }, "geometry": { "type": "Point", "coordinates": [ -84.194474608999897, 39.081162001000031 ] } },
{ "type": "Feature", "properties": { "NAME": "NORTHWEST STATE COMMUNITY COLLEGE", "CITY": "ARCHBOLD", "STATE": "OH", "TOT_ENROLL": 2377 }, "geometry": { "type": "Point", "coordinates": [ -84.297705848999911, 41.450546938000052 ] } },
{ "type": "Feature", "properties": { "NAME": "GRATZ COLLEGE", "CITY": "MELROSE PARK", "STATE": "PA", "TOT_ENROLL": 332 }, "geometry": { "type": "Point", "coordinates": [ -75.133619960999965, 40.066971864 ] } },
{ "type": "Feature", "properties": { "NAME": "DANIEL MORGAN GRADUATE SCHOOL OF NATIONAL SECURITY", "CITY": "WASHINGTON", "STATE": "DC", "TOT_ENROLL": 52 }, "geometry": { "type": "Point", "coordinates": [ -77.037741966999988, 38.903346574000047 ] } },
{ "type": "Feature", "properties": { "NAME": "JOHNSON COLLEGE", "CITY": "SCRANTON", "STATE": "PA", "TOT_ENROLL": 428 }, "geometry": { "type": "Point", "coordinates": [ -75.641024400999981, 41.44981938600008 ] } },
{ "type": "Feature", "properties": { "NAME": "HAVERFORD COLLEGE", "CITY": "HAVERFORD", "STATE": "PA", "TOT_ENROLL": 1310 }, "geometry": { "type": "Point", "coordinates": [ -75.305105501999947, 40.007334790000058 ] } },
{ "type": "Feature", "properties": { "NAME": "DSDT", "CITY": "DETROIT", "STATE": "MI", "TOT_ENROLL": 61 }, "geometry": { "type": "Point", "coordinates": [ -83.081488008999955, 42.325620208000053 ] } },
{ "type": "Feature", "properties": { "NAME": "LINCOLN COLLEGE OF TECHNOLOGY-NASHVILLE", "CITY": "NASHVILLE", "STATE": "TN", "TOT_ENROLL": 1692 }, "geometry": { "type": "Point", "coordinates": [ -86.743954402999989, 36.194371907000047 ] } },
{ "type": "Feature", "properties": { "NAME": "SALUS UNIVERSITY", "CITY": "ELKINS PARK", "STATE": "PA", "TOT_ENROLL": 1211 }, "geometry": { "type": "Point", "coordinates": [ -75.129793030999963, 40.086297797 ] } },
{ "type": "Feature", "properties": { "NAME": "WAYNESBURG UNIVERSITY", "CITY": "WAYNESBURG", "STATE": "PA", "TOT_ENROLL": 1674 }, "geometry": { "type": "Point", "coordinates": [ -80.187453801999922, 39.899338872000065 ] } },
{ "type": "Feature", "properties": { "NAME": "GREENVILLE TECHNICAL COLLEGE", "CITY": "GREENVILLE", "STATE": "SC", "TOT_ENROLL": 10864 }, "geometry": { "type": "Point", "coordinates": [ -82.371276899999927, 34.826367497 ] } },
{ "type": "Feature", "properties": { "NAME": "WEST VIRGINIA UNIVERSITY INSTITUTE OF TECHNOLOGY", "CITY": "BECKLEY", "STATE": "WV", "TOT_ENROLL": 1755 }, "geometry": { "type": "Point", "coordinates": [ -81.184115821999953, 37.775900407000051 ] } },
{ "type": "Feature", "properties": { "NAME": "AUSTIN COMMUNITY COLLEGE DISTRICT", "CITY": "AUSTIN", "STATE": "TX", "TOT_ENROLL": 40799 }, "geometry": { "type": "Point", "coordinates": [ -97.712372621999592, 30.322683933000036 ] } },
{ "type": "Feature", "properties": { "NAME": "BAPTIST HEALTH SYSTEM SCHOOL OF HEALTH PROFESSIONS", "CITY": "SAN ANTONIO", "STATE": "TX", "TOT_ENROLL": 649 }, "geometry": { "type": "Point", "coordinates": [ -98.567447712000373, 29.516974999000041 ] } },
{ "type": "Feature", "properties": { "NAME": "MIAMI INTERNATIONAL UNIVERSITY OF ART & DESIGN-ART INSTITUTE DALLAS", "CITY": "DALLAS", "STATE": "TX", "TOT_ENROLL": 661 }, "geometry": { "type": "Point", "coordinates": [ -96.76785264200025, 32.87099689899999 ] } },
{ "type": "Feature", "properties": { "NAME": "WYOTECH", "CITY": "LARAMIE", "STATE": "WY", "TOT_ENROLL": 38 }, "geometry": { "type": "Point", "coordinates": [ -105.62105536999951, 41.303442927000042 ] } },
{ "type": "Feature", "properties": { "NAME": "SAN ANTONIO COLLEGE", "CITY": "SAN ANTONIO", "STATE": "TX", "TOT_ENROLL": 17573 }, "geometry": { "type": "Point", "coordinates": [ -98.494492052000254, 29.446208250000065 ] } },
{ "type": "Feature", "properties": { "NAME": "WHEELING JESUIT UNIVERSITY", "CITY": "WHEELING", "STATE": "WV", "TOT_ENROLL": 1171 }, "geometry": { "type": "Point", "coordinates": [ -80.69010152, 40.07162144100004 ] } },
{ "type": "Feature", "properties": { "NAME": "ANTILLES SCHOOL OF TECHNICAL CAREERS", "CITY": "SAN JUAN", "STATE": "PR", "TOT_ENROLL": 419 }, "geometry": { "type": "Point", "coordinates": [ -66.059135622, 18.438350899000078 ] } },
{ "type": "Feature", "properties": { "NAME": "COLUMBIA CENTRAL UNIVERSITY-CAGUAS", "CITY": "CAGUAS", "STATE": "PR", "TOT_ENROLL": 1156 }, "geometry": { "type": "Point", "coordinates": [ -66.022533118999903, 18.223278905000051 ] } },
{ "type": "Feature", "properties": { "NAME": "CARIBBEAN UNIVERSITY-BAYAMON", "CITY": "BAYAMON", "STATE": "PR", "TOT_ENROLL": 1197 }, "geometry": { "type": "Point", "coordinates": [ -66.16831665499997, 18.382969516000049 ] } },
{ "type": "Feature", "properties": { "NAME": "CARIBBEAN UNIVERSITY-CAROLINA", "CITY": "CAROLINA", "STATE": "PR", "TOT_ENROLL": 323 }, "geometry": { "type": "Point", "coordinates": [ -65.960031541999967, 18.380091700000015 ] } },
{ "type": "Feature", "properties": { "NAME": "CEM COLLEGE-SAN JUAN", "CITY": "SAN JUAN", "STATE": "PR", "TOT_ENROLL": 408 }, "geometry": { "type": "Point", "coordinates": [ -66.035726008999987, 18.393900376000037 ] } },
{ "type": "Feature", "properties": { "NAME": "LYNNES WELDING TRAINING-BISMARCK", "CITY": "BISMARCK", "STATE": "ND", "TOT_ENROLL": 16 }, "geometry": { "type": "Point", "coordinates": [ -100.754762516999577, 46.75631756300006 ] } },
{ "type": "Feature", "properties": { "NAME": "CENTER FOR ADVANCED STUDIES ON PUERTO RICO AND THE CARIBBEAN", "CITY": "SAN JUAN", "STATE": "PR", "TOT_ENROLL": 468 }, "geometry": { "type": "Point", "coordinates": [ -66.118453206999931, 18.466617479000064 ] } },
{ "type": "Feature", "properties": { "NAME": "INSTITUTO TECNOLOGICO DE PUERTO RICO-RECINTO DE MANATI", "CITY": "MANATI", "STATE": "PR", "TOT_ENROLL": 588 }, "geometry": { "type": "Point", "coordinates": [ -66.472606318, 18.432649194000035 ] } },
{ "type": "Feature", "properties": { "NAME": "HUERTAS COLLEGE", "CITY": "CAGUAS", "STATE": "PR", "TOT_ENROLL": 796 }, "geometry": { "type": "Point", "coordinates": [ -66.025609761999974, 18.235986836000073 ] } },
{ "type": "Feature", "properties": { "NAME": "ESCUELA DE ARTES PLASTICAS Y DISENO DE PUERTO RICO", "CITY": "SAN JUAN", "STATE": "PR", "TOT_ENROLL": 441 }, "geometry": { "type": "Point", "coordinates": [ -66.121296746000027, 18.467811645000019 ] } },
{ "type": "Feature", "properties": { "NAME": "ESCONDIDO ADULT SCHOOL", "CITY": "ESCONDIDO", "STATE": "CA", "TOT_ENROLL": 99 }, "geometry": { "type": "Point", "coordinates": [ -117.088490504999569, 33.13122606600006 ] } },
{ "type": "Feature", "properties": { "NAME": "THE SALON PROFESSIONAL ACADEMY-DELRAY BEACH", "CITY": "DELRAY BEACH", "STATE": "FL", "TOT_ENROLL": 24 }, "geometry": { "type": "Point", "coordinates": [ -80.119057042999913, 26.460950721000067 ] } },
{ "type": "Feature", "properties": { "NAME": "HUMACAO COMMUNITY COLLEGE", "CITY": "HUMACAO", "STATE": "PR", "TOT_ENROLL": 467 }, "geometry": { "type": "Point", "coordinates": [ -65.826768078999947, 18.148248667000072 ] } },
{ "type": "Feature", "properties": { "NAME": "ICPR JUNIOR COLLEGE-MAYAGUEZ", "CITY": "MAYAGUEZ", "STATE": "PR", "TOT_ENROLL": 429 }, "geometry": { "type": "Point", "coordinates": [ -67.144877871999967, 18.202369270000116 ] } },
{ "type": "Feature", "properties": { "NAME": "UNIVERSITY OF PUERTO RICO-MEDICAL SCIENCES", "CITY": "SAN JUAN", "STATE": "PR", "TOT_ENROLL": 2253 }, "geometry": { "type": "Point", "coordinates": [ -66.074907626999916, 18.396498323000067 ] } },
{ "type": "Feature", "properties": { "NAME": "INSTITUTO TECNOLOGICO DE PUERTO RICO-RECINTO DE SAN JUAN", "CITY": "SAN JUAN", "STATE": "PR", "TOT_ENROLL": 422 }, "geometry": { "type": "Point", "coordinates": [ -66.016150751999959, 18.411081180000018 ] } },
{ "type": "Feature", "properties": { "NAME": "TONI & GUY HAIRDRESSING ACADEMY-IDAHO", "CITY": "COEUR D'ALENE", "STATE": "ID", "TOT_ENROLL": 52 }, "geometry": { "type": "Point", "coordinates": [ -116.793700767999766, 47.705908415000053 ] } },
{ "type": "Feature", "properties": { "NAME": "INTER AMERICAN UNIVERSITY OF PUERTO RICO-GUAYAMA", "CITY": "GUAYAMA", "STATE": "PR", "TOT_ENROLL": 1726 }, "geometry": { "type": "Point", "coordinates": [ -66.109887242999974, 17.966656459000056 ] } },
{ "type": "Feature", "properties": { "NAME": "NATIONAL UNIVERSITY COLLEGE", "CITY": "BAYAMON", "STATE": "PR", "TOT_ENROLL": 11260 }, "geometry": { "type": "Point", "coordinates": [ -66.156969022999959, 18.396822173000068 ] } },
{ "type": "Feature", "properties": { "NAME": "UNIVERSIDAD ANA G. MENDEZ-CAROLINA CAMPUS", "CITY": "CAROLINA", "STATE": "PR", "TOT_ENROLL": 10330 }, "geometry": { "type": "Point", "coordinates": [ -65.984105073999913, 18.413290446000094 ] } },
{ "type": "Feature", "properties": { "NAME": "UNIVERSITY OF PUERTO RICO-UTUADO", "CITY": "UTUADO", "STATE": "PR", "TOT_ENROLL": 842 }, "geometry": { "type": "Point", "coordinates": [ -66.721164831999971, 18.254592855000016 ] } },
{ "type": "Feature", "properties": { "NAME": "BRYANT & STRATTON COLLEGE-RACINE", "CITY": "MOUNT PLEASANT", "STATE": "WI", "TOT_ENROLL": 103 }, "geometry": { "type": "Point", "coordinates": [ -87.865119702000015, 42.717927473000046 ] } },
{ "type": "Feature", "properties": { "NAME": "INTER AMERICAN UNIVERSITY OF PUERTO RICO-FAJARDO", "CITY": "FAJARDO", "STATE": "PR", "TOT_ENROLL": 1889 }, "geometry": { "type": "Point", "coordinates": [ -65.64725224299994, 18.328703260000019 ] } },
{ "type": "Feature", "properties": { "NAME": "UNIVERSIDAD DEL SAGRADO CORAZON", "CITY": "SANTURCE", "STATE": "PR", "TOT_ENROLL": 4469 }, "geometry": { "type": "Point", "coordinates": [ -66.058215236999956, 18.442464507000068 ] } },
{ "type": "Feature", "properties": { "NAME": "PONTIFICAL CATHOLIC UNIVERSITY OF PUERTO RICO-MAYAGUEZ", "CITY": "MAYAGUEZ", "STATE": "PR", "TOT_ENROLL": 1273 }, "geometry": { "type": "Point", "coordinates": [ -67.14574035899993, 18.182247813000021 ] } },
{ "type": "Feature", "properties": { "NAME": "COLLEGE OF MICRONESIA-FSM", "CITY": "POHNPEI", "STATE": "FM", "TOT_ENROLL": 1931 }, "geometry": { "type": "Point", "coordinates": [ 158.211191463000262, 6.959541097000052 ] } },
{ "type": "Feature", "properties": { "NAME": "NORTHWESTERN COLLEGE-SOUTHWESTERN CAMPUS", "CITY": "BRIDGEVIEW", "STATE": "IL", "TOT_ENROLL": 597 }, "geometry": { "type": "Point", "coordinates": [ -87.797224142999951, 41.75164413100002 ] } },
{ "type": "Feature", "properties": { "NAME": "DOUGLAS J AVEDA INSTITUTE", "CITY": "EAST LANSING", "STATE": "MI", "TOT_ENROLL": 793 }, "geometry": { "type": "Point", "coordinates": [ -84.48054402599999, 42.734701445000034 ] } },
{ "type": "Feature", "properties": { "NAME": "CARIBBEAN UNIVERSITY-PONCE", "CITY": "PONCE", "STATE": "PR", "TOT_ENROLL": 755 }, "geometry": { "type": "Point", "coordinates": [ -66.593677355999972, 18.006604199000048 ] } },
{ "type": "Feature", "properties": { "NAME": "STONE CHILD COLLEGE", "CITY": "BOX ELDER", "STATE": "MT", "TOT_ENROLL": 444 }, "geometry": { "type": "Point", "coordinates": [ -109.87025803100002, 48.28989796200004 ] } },
{ "type": "Feature", "properties": { "NAME": "PURDUE UNIVERSITY GLOBAL-DES MOINES", "CITY": "URBANDALE", "STATE": "IA", "TOT_ENROLL": 760 }, "geometry": { "type": "Point", "coordinates": [ -93.778, 41.646 ] } },
{ "type": "Feature", "properties": { "NAME": "HODGES UNIVERSITY", "CITY": "NAPLES", "STATE": "FL", "TOT_ENROLL": 1051 }, "geometry": { "type": "Point", "coordinates": [ -81.741206788999932, 26.277252930000035 ] } },
{ "type": "Feature", "properties": { "NAME": "HUSSIAN COLLEGE-DAYMAR COLLEGE CLARKSVILLE", "CITY": "CLARKSVILLE", "STATE": "TN", "TOT_ENROLL": 719 }, "geometry": { "type": "Point", "coordinates": [ -87.312873095999947, 36.582745953000057 ] } },
{ "type": "Feature", "properties": { "NAME": "ICPR JUNIOR COLLEGE-GENERAL INSTITUTIONAL", "CITY": "HATO REY", "STATE": "PR", "TOT_ENROLL": 562 }, "geometry": { "type": "Point", "coordinates": [ -66.057266389999953, 18.415176241000051 ] } },
{ "type": "Feature", "properties": { "NAME": "FORTIS COLLEGE-SMYRNA", "CITY": "SMYRNA", "STATE": "GA", "TOT_ENROLL": 613 }, "geometry": { "type": "Point", "coordinates": [ -84.543076764, 33.900217717 ] } },
{ "type": "Feature", "properties": { "NAME": "PLATT COLLEGE-LOS ANGELES", "CITY": "ALHAMBRA", "STATE": "CA", "TOT_ENROLL": 570 }, "geometry": { "type": "Point", "coordinates": [ -118.149866570999677, 34.081491146000083 ] } },
{ "type": "Feature", "properties": { "NAME": "LINCOLN TECHNICAL INSTITUTE-MOORESTOWN", "CITY": "MOORESTOWN", "STATE": "NJ", "TOT_ENROLL": 579 }, "geometry": { "type": "Point", "coordinates": [ -74.955979376999949, 39.948481674000071 ] } },
{ "type": "Feature", "properties": { "NAME": "BRYANT & STRATTON COLLEGE-SOUTHTOWNS", "CITY": "ORCHARD PARK", "STATE": "NY", "TOT_ENROLL": 195 }, "geometry": { "type": "Point", "coordinates": [ -78.768968145999949, 42.790117883000036 ] } },
{ "type": "Feature", "properties": { "NAME": "CEM COLLEGE-HUMACAO", "CITY": "HUMACAO", "STATE": "PR", "TOT_ENROLL": 262 }, "geometry": { "type": "Point", "coordinates": [ -65.825263632, 18.149236424 ] } },
{ "type": "Feature", "properties": { "NAME": "WESTERN TECHNOLOGY CENTER", "CITY": "BURNS FLAT", "STATE": "OK", "TOT_ENROLL": 506 }, "geometry": { "type": "Point", "coordinates": [ -99.180915490999823, 35.35289245300001 ] } },
{ "type": "Feature", "properties": { "NAME": "NEW YORK COLLEGE OF HEALTH PROFESSIONS", "CITY": "SYOSSET", "STATE": "NY", "TOT_ENROLL": 473 }, "geometry": { "type": "Point", "coordinates": [ -73.516169135999945, 40.809326436 ] } },
{ "type": "Feature", "properties": { "NAME": "EVERGLADES UNIVERSITY", "CITY": "BOCA RATON", "STATE": "FL", "TOT_ENROLL": 2262 }, "geometry": { "type": "Point", "coordinates": [ -80.10617401099995, 26.391626471000052 ] } },
{ "type": "Feature", "properties": { "NAME": "EDIC COLLEGE", "CITY": "CAGUAS", "STATE": "PR", "TOT_ENROLL": 2238 }, "geometry": { "type": "Point", "coordinates": [ -66.025270778999953, 18.242611072000027 ] } },
{ "type": "Feature", "properties": { "NAME": "HERZING UNIVERSITY-WINTER PARK", "CITY": "WINTER PARK", "STATE": "FL", "TOT_ENROLL": 548 }, "geometry": { "type": "Point", "coordinates": [ -81.312669239999906, 28.615722663000014 ] } },
{ "type": "Feature", "properties": { "NAME": "UEI COLLEGE-FRESNO", "CITY": "FRESNO", "STATE": "CA", "TOT_ENROLL": 1000 }, "geometry": { "type": "Point", "coordinates": [ -119.788875066000131, 36.782811115000037 ] } },
{ "type": "Feature", "properties": { "NAME": "SOUTHERN CALIFORNIA INSTITUTE OF TECHNOLOGY", "CITY": "ANAHEIM", "STATE": "CA", "TOT_ENROLL": 584 }, "geometry": { "type": "Point", "coordinates": [ -117.950705372000201, 33.837952196000032 ] } },
{ "type": "Feature", "properties": { "NAME": "SUMMIT COLLEGE", "CITY": "COLTON", "STATE": "CA", "TOT_ENROLL": 306 }, "geometry": { "type": "Point", "coordinates": [ -117.304496924999768, 34.056255390000047 ] } },
{ "type": "Feature", "properties": { "NAME": "EASTERN NEW MEXICO UNIVERSITY RUIDOSO BRANCH COMMUNITY COLLEGE", "CITY": "RUIDOSO", "STATE": "NM", "TOT_ENROLL": 605 }, "geometry": { "type": "Point", "coordinates": [ -105.67729060299952, 33.34625750099999 ] } },
{ "type": "Feature", "properties": { "NAME": "WADE GORDON HAIRDRESSING ACADEMY", "CITY": "AMARILLO", "STATE": "TX", "TOT_ENROLL": 34 }, "geometry": { "type": "Point", "coordinates": [ -101.934577530000311, 35.183567106000062 ] } },
{ "type": "Feature", "properties": { "NAME": "GALEN COLLEGE OF NURSING-TAMPA BAY", "CITY": "SAINT PETERSBURG", "STATE": "FL", "TOT_ENROLL": 1303 }, "geometry": { "type": "Point", "coordinates": [ -82.648126818000023, 27.865537799000023 ] } },
{ "type": "Feature", "properties": { "NAME": "CHICAGO SCHOOL OF PROFESSIONAL PSYCHOLOGY AT DALLAS", "CITY": "RICHARDSON", "STATE": "TX", "TOT_ENROLL": 21 }, "geometry": { "type": "Point", "coordinates": [ -96.757252798999787, 32.979745432000072 ] } },
{ "type": "Feature", "properties": { "NAME": "PACIFIC COLLEGE OF ORIENTAL MEDICINE-NEW YORK", "CITY": "NEW YORK", "STATE": "NY", "TOT_ENROLL": 581 }, "geometry": { "type": "Point", "coordinates": [ -74.006614735999946, 40.708940411000093 ] } },
{ "type": "Feature", "properties": { "NAME": "CALIFORNIA COLLEGE OF BARBERING AND COSMETOLOGY", "CITY": "STOCKTON", "STATE": "CA", "TOT_ENROLL": 105 }, "geometry": { "type": "Point", "coordinates": [ -121.293789140999849, 38.000635870000025 ] } },
{ "type": "Feature", "properties": { "NAME": "TEXAS TECH UNIVERSITY HEALTH SCIENCES CENTER-EL PASO", "CITY": "EL PASO", "STATE": "TX", "TOT_ENROLL": 730 }, "geometry": { "type": "Point", "coordinates": [ -106.431229945999732, 31.771869534000036 ] } },
{ "type": "Feature", "properties": { "NAME": "CARRINGTON COLLEGE-SAN JOSE", "CITY": "SAN JOSE", "STATE": "CA", "TOT_ENROLL": 629 }, "geometry": { "type": "Point", "coordinates": [ -121.776851787000112, 37.24841370400005 ] } },
{ "type": "Feature", "properties": { "NAME": "PONCE HEALTH SCIENCES UNIVERSITY-CENTRO UNIVERSITARIO DE SAN JUAN", "CITY": "SANTURCE", "STATE": "PR", "TOT_ENROLL": 62 }, "geometry": { "type": "Point", "coordinates": [ -66.059636011999928, 18.44117389600007 ] } },
{ "type": "Feature", "properties": { "NAME": "UNIVERSITY OF PHOENIX-HAWAII", "CITY": "HONOLULU", "STATE": "HI", "TOT_ENROLL": 351 }, "geometry": { "type": "Point", "coordinates": [ -158.081055205000268, 21.333622685000012 ] } },
{ "type": "Feature", "properties": { "NAME": "THE COLLEGE OF HEALTH CARE PROFESSIONS-SOUTH SAN ANTONIO", "CITY": "SAN ANTONIO", "STATE": "TX", "TOT_ENROLL": 143 }, "geometry": { "type": "Point", "coordinates": [ -98.524845851999885, 29.356216830000012 ] } },
{ "type": "Feature", "properties": { "NAME": "OREGON COAST COMMUNITY COLLEGE", "CITY": "NEWPORT", "STATE": "OR", "TOT_ENROLL": 409 }, "geometry": { "type": "Point", "coordinates": [ -124.046836604000077, 44.602841802000079 ] } },
{ "type": "Feature", "properties": { "NAME": "INNOVATE SALON ACADEMY", "CITY": "EWING", "STATE": "NJ", "TOT_ENROLL": 62 }, "geometry": { "type": "Point", "coordinates": [ -74.802847706999984, 40.265286375000095 ] } },
{ "type": "Feature", "properties": { "NAME": "UNIVERSITY OF CONNECTICUT-WATERBURY CAMPUS", "CITY": "WATERBURY", "STATE": "CT", "TOT_ENROLL": 865 }, "geometry": { "type": "Point", "coordinates": [ -73.038666589999977, 41.555764069000077 ] } },
{ "type": "Feature", "properties": { "NAME": "LINCOLN TECHNICAL INSTITUTE-LINCOLN", "CITY": "LINCOLN", "STATE": "RI", "TOT_ENROLL": 607 }, "geometry": { "type": "Point", "coordinates": [ -71.477605722999925, 41.938467906000014 ] } },
{ "type": "Feature", "properties": { "NAME": "CAREER NETWORKS INSTITUTE", "CITY": "ORANGE", "STATE": "CA", "TOT_ENROLL": 338 }, "geometry": { "type": "Point", "coordinates": [ -117.860399855999702, 33.776142178000065 ] } },
{ "type": "Feature", "properties": { "NAME": "OCEAN COUNTY VOCATIONAL-TECHNICAL SCHOOL", "CITY": "TOMS RIVER", "STATE": "NJ", "TOT_ENROLL": 369 }, "geometry": { "type": "Point", "coordinates": [ -74.192943516999932, 39.985272686000052 ] } },
{ "type": "Feature", "properties": { "NAME": "COLEGIO DE CINEMATOGRAFA ARTES Y TELEVISION", "CITY": "BAYAMON", "STATE": "PR", "TOT_ENROLL": 611 }, "geometry": { "type": "Point", "coordinates": [ -66.155549046999951, 18.399568402000074 ] } },
{ "type": "Feature", "properties": { "NAME": "SOUTHEASTERN COLLEGE-WEST PALM BEACH", "CITY": "WEST PALM BEACH", "STATE": "FL", "TOT_ENROLL": 540 }, "geometry": { "type": "Point", "coordinates": [ -80.085986395999953, 26.702146869000011 ] } },
{ "type": "Feature", "properties": { "NAME": "CAREER TECHNICAL INSTITUTE", "CITY": "WASHINGTON", "STATE": "DC", "TOT_ENROLL": 348 }, "geometry": { "type": "Point", "coordinates": [ -77.032488060999938, 38.904005686000076 ] } },
{ "type": "Feature", "properties": { "NAME": "AUTOMECA TECHNICAL COLLEGE-BAYAMON", "CITY": "BAYAMON", "STATE": "PR", "TOT_ENROLL": 377 }, "geometry": { "type": "Point", "coordinates": [ -66.180006951999957, 18.406427628000031 ] } },
{ "type": "Feature", "properties": { "NAME": "BEAUTY SCHOOLS OF AMERICA-HIALEAH", "CITY": "HIALEAH", "STATE": "FL", "TOT_ENROLL": 339 }, "geometry": { "type": "Point", "coordinates": [ -80.303792855, 25.865675268000068 ] } },
{ "type": "Feature", "properties": { "NAME": "DRURY UNIVERSITY-COLLEGE OF CONTINUING PROFESSIONAL STUDIES", "CITY": "SPRINGFIELD", "STATE": "MO", "TOT_ENROLL": 1542 }, "geometry": { "type": "Point", "coordinates": [ -93.286711464999669, 37.218523661000056 ] } },
{ "type": "Feature", "properties": { "NAME": "INDIANA INSTITUTE OF TECHNOLOGY-COLLEGE OF PROFESSIONS STUDIES", "CITY": "FORT WAYNE", "STATE": "IN", "TOT_ENROLL": 4714 }, "geometry": { "type": "Point", "coordinates": [ -85.115449913999981, 41.076649204000049 ] } },
{ "type": "Feature", "properties": { "NAME": "CBD COLLEGE", "CITY": "LOS ANGELES", "STATE": "CA", "TOT_ENROLL": 628 }, "geometry": { "type": "Point", "coordinates": [ -118.306193670999775, 34.062322949000119 ] } },
{ "type": "Feature", "properties": { "NAME": "EASTERN WEST VIRGINIA COMMUNITY AND TECHNICAL COLLEGE", "CITY": "MOOREFIELD", "STATE": "WV", "TOT_ENROLL": 483 }, "geometry": { "type": "Point", "coordinates": [ -78.932461892999982, 39.075572135000037 ] } },
{ "type": "Feature", "properties": { "NAME": "UNIVERSAL TECHNICAL INSTITUTE OF CALIFORNIA INC", "CITY": "RANCHO CUCAMONGA", "STATE": "CA", "TOT_ENROLL": 1362 }, "geometry": { "type": "Point", "coordinates": [ -117.576397775000146, 34.083555359000052 ] } },
{ "type": "Feature", "properties": { "NAME": "GLOBAL MEDICAL & TECHNICAL TRAINING INSTITUTE", "CITY": "MIAMI", "STATE": "FL", "TOT_ENROLL": 18 }, "geometry": { "type": "Point", "coordinates": [ -80.225258611999948, 25.779647461000032 ] } },
{ "type": "Feature", "properties": { "NAME": "SALON SUCCESS ACADEMY-WEST COVINA", "CITY": "WEST COVINA", "STATE": "CA", "TOT_ENROLL": 37 }, "geometry": { "type": "Point", "coordinates": [ -117.933832273000036, 34.07055529000003 ] } },
{ "type": "Feature", "properties": { "NAME": "UNIVERSAL TECHNICAL INSTITUTE-BLOOMFIELD", "CITY": "BLOOMFIELD", "STATE": "NJ", "TOT_ENROLL": 228 }, "geometry": { "type": "Point", "coordinates": [ -74.180987311999928, 40.841056797000064 ] } },
{ "type": "Feature", "properties": { "NAME": "GOULD'S ACADEMY", "CITY": "BARTLETT", "STATE": "TN", "TOT_ENROLL": 58 }, "geometry": { "type": "Point", "coordinates": [ -89.795635685999969, 35.206715285000065 ] } },
{ "type": "Feature", "properties": { "NAME": "STANBRIDGE UNIVERSITY-LOS ANGELES", "CITY": "ALHAMBRA", "STATE": "CA", "TOT_ENROLL": 28 }, "geometry": { "type": "Point", "coordinates": [ -118.148746923999738, 34.080289340000014 ] } },
{ "type": "Feature", "properties": { "NAME": "GRANTHAM UNIVERSITY", "CITY": "LENEXA", "STATE": "KS", "TOT_ENROLL": 8059 }, "geometry": { "type": "Point", "coordinates": [ -94.771582059999631, 38.922531532000043 ] } },
{ "type": "Feature", "properties": { "NAME": "UTA MESIVTA OF KIRYAS JOEL", "CITY": "MONROE", "STATE": "NY", "TOT_ENROLL": 1940 }, "geometry": { "type": "Point", "coordinates": [ -74.161208491999957, 41.333870787000095 ] } },
{ "type": "Feature", "properties": { "NAME": "PLATT COLLEGE-MILLER-MOTTE TECHNICAL-CHATTANOOGA", "CITY": "CHATTANOOGA", "STATE": "TN", "TOT_ENROLL": 526 }, "geometry": { "type": "Point", "coordinates": [ -85.181912844999914, 35.034232204000055 ] } },
{ "type": "Feature", "properties": { "NAME": "STRAYER UNIVERSITY-PENNSYLVANIA", "CITY": "TREVOSE", "STATE": "PA", "TOT_ENROLL": 2261 }, "geometry": { "type": "Point", "coordinates": [ -74.963021925999982, 40.139646088000049 ] } },
{ "type": "Feature", "properties": { "NAME": "BLUE RIDGE COMMUNITY AND TECHNICAL COLLEGE", "CITY": "MARTINSBURG", "STATE": "WV", "TOT_ENROLL": 6273 }, "geometry": { "type": "Point", "coordinates": [ -78.001880642999879, 39.435342697000031 ] } },
{ "type": "Feature", "properties": { "NAME": "DELTA TECHNICAL COLLEGE", "CITY": "HORN LAKE", "STATE": "MS", "TOT_ENROLL": 688 }, "geometry": { "type": "Point", "coordinates": [ -89.999630306000057, 34.956259385000074 ] } },